{"key":[{"_id":"5e170c59c27aa15cda0a1e53","modeOfTransport":"Van","postCode":"360005","name":"Khanak Mitul  Faldu","std":"Sr.KgC","address":"A-204 , Aakruti Apt . Near Modi school , Ambika township , opp. Mavdi plot headquaters","cluster":"ambedkar chowk","__v":"0","splicedAddress":"A-204 , Aakruti Apt . Near Modi school , Ambika township , opp. Mavdi plot headquaters","newAddress":"A-204%20,%20Aakruti%20Apt%20.%20Near%20Modi%20school%20,%20Ambika%20township%20,%20opp.%20Mavdi%20plot%20headquaters%20Rajkot%20Gujarat%20360005%20India","geoCode":{"lat":"22.2856292","lng":"70.79030879999999"}},{"_id":"5e170c59c27aa15cda0a1e54","modeOfTransport":"Van","postCode":"360004","name":"Shreyaben Rajeshbhai Rank","std":"Sr.KgD","address":"7 Labhdeep socitey, 150 Ft Ring Road Mavdi Chowk","cluster":"mavdi chowk","__v":"0","splicedAddress":"7 Labhdeep socitey, 150 Ft Ring Road Mavdi Chowk","newAddress":"7%20Labhdeep%20socitey,%20150%20Ft%20Ring%20Road%20Mavdi%20Chowk%20Rajkot%20Gujarat%20360004%20India","geoCode":{"lat":"22.3108831","lng":"70.7680936"}},{"_id":"5e170c59c27aa15cda0a1e55","modeOfTransport":"Van","postCode":"360005","name":"Aradhya Jiten Dave","std":"Sr.KgD","address":"c\\0 \"Prashant\", Bhid Banjan Socitey. Nilkanth Nagar Main Road University Road","cluster":"panchayat chowk","__v":"0","splicedAddress":"c\\0 \"Prashant\", Bhid Banjan Socitey. Nilkanth Nagar Main Road University Road","newAddress":"c\\0%20\"Prashant\",%20Bhid%20Banjan%20Socitey.%20Nilkanth%20Nagar%20Main%20Road%20University%20Road%20Rajkot%20Gujarat%20360005%20India","geoCode":{"lat":"22.2876251","lng":"70.7597703"}},{"_id":"5e170c59c27aa15cda0a1e56","modeOfTransport":"Parent","postCode":"360005","name":"Aaradhya Sachinbhai Vyas","std":"Sr.KgB","address":"Sopan Hebitet c-201, Patidar Chowk Sadhuvasvani Road","cluster":"Sadhuvashvani road","__v":"0","splicedAddress":"Sopan Hebitet c-201, Patidar Chowk Sadhuvasvani Road","newAddress":"Sopan%20Hebitet%20c-201,%20Patidar%20Chowk%20Sadhuvasvani%20Road%20Rajkot%20Gujarat%20360005%20India","geoCode":{"lat":"22.2966504","lng":"70.7518496"}},{"_id":"5e170c59c27aa15cda0a1e57","modeOfTransport":"Van","postCode":"360007","name":"Vishwa Hiteshbhai Raigagla","std":"Sr.KgA","address":"3-Rajhans Socitey, Opp. Kadar Vora Street , Raiya Road","cluster":"raiya to ramapir chowk","__v":"0","splicedAddress":"3-Rajhans Socitey, Opp. Kadar Vora Street , Raiya Road","newAddress":"3-Rajhans%20Socitey,%20Opp.%20Kadar%20Vora%20Street%20,%20Raiya%20Road%20Rajkot%20Gujarat%20360007%20India","geoCode":{"lat":"22.2919649","lng":"70.811055"}},{"_id":"5e170c59c27aa15cda0a1e58","modeOfTransport":"Van","postCode":"360005","name":"Mishti Pankaj Tekwani","std":"Sr.KgA","address":"Premier Palce A 107, New College Wadi Street No.3, Bh Pinjab Honda Show Room","cluster":"telephone-exhange to big-bazar","__v":"0","splicedAddress":"Premier Palce A 107, New College Wadi Street No.3, Bh Pinjab Honda Show Room","newAddress":"Premier%20Palce%20A%20107,%20New%20College%20Wadi%20Street%20No.3,%20Bh%20Pinjab%20Honda%20Show%20Room%20Rajkot%20Gujarat%20360005%20India","geoCode":{"lat":"22.2854653","lng":"70.7711829"}},{"_id":"5e170c59c27aa15cda0a1e59","modeOfTransport":"Van","postCode":"360007","name":"Jeniliya Niradbhai Ankleshwariya","std":"Sr.KgB","address":"\"Kashyap\" Block No.-I-9, Shiv Park, Street No.2 Raiya Road","cluster":"raiya to ramapir chowk","__v":"0","splicedAddress":"\"Kashyap\" Block No.-I-9, Shiv Park, Street No.2 Raiya Road","newAddress":"\"Kashyap\"%20Block%20No.-I-9,%20Shiv%20Park,%20Street%20No.2%20Raiya%20Road%20Rajkot%20Gujarat%20360007%20India","geoCode":{"lat":"22.298021","lng":"70.78423599999999"}},{"_id":"5e170c59c27aa15cda0a1e5a","modeOfTransport":"Parent","postCode":"360005","name":"Tirtha  Rajnikant  Pan","std":"Sr.KgB","address":"Block No.1, Utsav Park, Sadhuvasvani Raod","cluster":"Sadhuvasvani road","__v":"0","splicedAddress":"Block No.1, Utsav Park, Sadhuvasvani Raod","newAddress":"Block%20No.1,%20Utsav%20Park,%20Sadhuvasvani%20Raod%20Rajkot%20Gujarat%20360005%20India","geoCode":{"lat":"22.290774","lng":"70.760289"}},{"_id":"5e170c59c27aa15cda0a1e5b","modeOfTransport":"Van","postCode":"360005","name":"Bhakti Nirenkumar Vachhani","std":"Sr.KgD","address":"201 , vraj -villa, , Tirupati Park, nana mova main road","cluster":"big-bazar to mavdi","__v":"0","splicedAddress":"201 , vraj -villa, , Tirupati Park, nana mova main road","newAddress":"201%20,%20vraj%20-villa,%20,%20Tirupati%20Park,%20nana%20mova%20main%20road%20Rajkot%20Gujarat%20360005%20India","geoCode":{"lat":"22.2676039","lng":"70.7677061"}},{"_id":"5e170c59c27aa15cda0a1e5c","modeOfTransport":"Parent","postCode":"360005","name":"Mahiben Hareshbhai Kalola","std":"Sr.KgA","address":"Street No.4 Block No. 142 Janakpuri Sadhuvasvani Road","cluster":"Sadhuvasvani road","__v":"0","splicedAddress":"Street No.4 Block No. 142 Janakpuri Sadhuvasvani Road","newAddress":"Street%20No.4%20Block%20No.%20142%20Janakpuri%20Sadhuvasvani%20Road%20Rajkot%20Gujarat%20360005%20India","geoCode":{"lat":"22.2939632","lng":"70.7589004"}},{"_id":"5e170c59c27aa15cda0a1e5d","modeOfTransport":"Van","postCode":"360005","name":"Heer Vishal Moliya","std":"Sr.KgC","address":"\"Amrut Dhara\" Flat no 402 Dadi Baugh, Master society Main Road Near Sorathiyawadi Circle","cluster":"bhakti nagar","__v":"0","splicedAddress":"\"Amrut Dhara\" Flat no 402 Dadi Baugh, Master society Main Road Near Sorathiyawadi Circle","newAddress":"\"Amrut%20Dhara\"%20Flat%20no%20402%20Dadi%20Baugh,%20Master%20society%20Main%20Road%20Near%20Sorathiyawadi%20Circle%20Rajkot%20Gujarat%20360005%20India","geoCode":{"lat":"22.278477","lng":"70.8101835"}},{"_id":"5e170c59c27aa15cda0a1e5e","modeOfTransport":"Van","postCode":"360005","name":"Yashvi Ketanbhai Virani","std":"Sr.KgD","address":"Block no 26 Om Sanidhya bunglows opp Balaji Hall 150 feet ring road","cluster":"big-bazar to mavdi","__v":"0","splicedAddress":"Block no 26 Om Sanidhya bunglows opp Balaji Hall 150 feet ring road","newAddress":"Block%20no%2026%20Om%20Sanidhya%20bunglows%20opp%20Balaji%20Hall%20150%20feet%20ring%20road%20Rajkot%20Gujarat%20360005%20India","geoCode":{"lat":"22.2708005","lng":"70.78155699999999"}},{"_id":"5e170c59c27aa15cda0a1e5f","modeOfTransport":"Van","postCode":"360005","name":"Misri Mitulbhai Kalariya","std":"Sr.KgB","address":"102 Subh Palace, Nana Mawa Road B\\H Alay Park","cluster":"big-bazar to mavdi","__v":"0","splicedAddress":"102 Subh Palace, Nana Mawa Road B\\H Alay Park","newAddress":"102%20Subh%20Palace,%20Nana%20Mawa%20Road%20B\\H%20Alay%20Park%20Rajkot%20Gujarat%20360005%20India","geoCode":{"lat":"22.2879991","lng":"70.7954773"}},{"_id":"5e170c59c27aa15cda0a1e60","modeOfTransport":"Parent","postCode":"360005","name":"Maahi  Hiren Makadia","std":"Sr.KgB","address":"614-Nand Village, Patidar Chowk, Sadhuwasvani Road","cluster":"Sadhuvasvani road","__v":"0","splicedAddress":"614-Nand Village, Patidar Chowk, Sadhuwasvani Road","newAddress":"614-Nand%20Village,%20Patidar%20Chowk,%20Sadhuwasvani%20Road%20Rajkot%20Gujarat%20360005%20India","geoCode":{"lat":"22.2956634","lng":"70.7516006"}},{"_id":"5e170c59c27aa15cda0a1e61","modeOfTransport":"Parent","postCode":"360005","name":"Honey  Nishantbhai Khimani","std":"Sr.KgD","address":"\"Mahavir\",150 Ft Ring Road Nr. Jai Ganesh Showroom , Opp. Modi School","cluster":"telephone-exchange to big-bazar","__v":"0","splicedAddress":"\"Mahavir\",150 Ft Ring Road Nr. Jai Ganesh Showroom , Opp. Modi School","newAddress":"\"Mahavir\",150%20Ft%20Ring%20Road%20Nr.%20Jai%20Ganesh%20Showroom%20,%20Opp.%20Modi%20School%20Rajkot%20Gujarat%20360005%20India","geoCode":{"lat":"22.262378","lng":"70.7686253"}},{"_id":"5e170c59c27aa15cda0a1e62","modeOfTransport":"Parent","postCode":"360005","name":"Purva Milan Bhalodi","std":"Sr.KgD","address":"332, Tower No. 3, Nand Gav Appartment, Nr. Vasant Vihar Patidar Chowk Sadhuvasvani Road","__v":"0","splicedAddress":"332, Tower No. 3, Nand Gav Appartment, Nr. Vasant Vihar Patidar Chowk Sadhuvasvani Road","newAddress":"332,%20Tower%20No.%203,%20Nand%20Gav%20Appartment,%20Nr.%20Vasant%20Vihar%20Patidar%20Chowk%20Sadhuvasvani%20Road%20Rajkot%20Gujarat%20360005%20India","geoCode":{"lat":"22.295228","lng":"70.75169360000001"}},{"_id":"5e170c59c27aa15cda0a1e63","modeOfTransport":"Parent","postCode":"360005","name":"Mishri Kashyap Ankaleshvaria","std":"Sr.KgA","address":"101 1st Floor. Maniraj App-2, nr. Parshuram Marble, Indraprasth Nagar, B\\H Alap Green","__v":"0","splicedAddress":"101 1st Floor. Maniraj App-2, nr. Parshuram Marble, Indraprasth Nagar, B\\H Alap Green","newAddress":"101%201st%20Floor.%20Maniraj%20App-2,%20nr.%20Parshuram%20Marble,%20Indraprasth%20Nagar,%20B\\H%20Alap%20Green%20Rajkot%20Gujarat%20360005%20India","geoCode":{"lat":"22.2860712","lng":"70.7885817"}},{"_id":"5e170c59c27aa15cda0a1e64","modeOfTransport":"Van","postCode":"360005","name":"Heer Amitbhai Sabhaya","std":"Sr.KgD","address":"\"Saraswat\" Nandi PARK 2/6 Corner University Road ","__v":"0","splicedAddress":"\"Saraswat\" Nandi PARK 2/6 Corner University Road ","newAddress":"\"Saraswat\"%20Nandi%20PARK%202/6%20Corner%20University%20Road%20%20Rajkot%20Gujarat%20360005%20India","geoCode":{"lat":"22.2851892","lng":"70.7597682"}},{"_id":"5e170c59c27aa15cda0a1e65","modeOfTransport":"Van","postCode":"360005","name":"Vari Meetbhai Vachhani","std":"Sr.KgC","address":"Block no 113 Janakpuri Society Sadhuvaswani road","__v":"0","splicedAddress":"Block no 113 Janakpuri Society Sadhuvaswani road","newAddress":"Block%20no%20113%20Janakpuri%20Society%20Sadhuvaswani%20road%20Rajkot%20Gujarat%20360005%20India","geoCode":{"lat":"22.2903441","lng":"70.758999"}},{"_id":"5e170c59c27aa15cda0a1e66","modeOfTransport":"Van","postCode":"360005","name":"Nency  Chintanbhai Dhruv","std":"Sr.KgA","address":"603 Nandniketan opp Near Ghanteshwar hotel Jamnagar Road","__v":"0","splicedAddress":"603 Nandniketan opp Near Ghanteshwar hotel Jamnagar Road","newAddress":"603%20Nandniketan%20opp%20Near%20Ghanteshwar%20hotel%20Jamnagar%20Road%20Rajkot%20Gujarat%20360005%20India","geoCode":{"lat":"22.3360144","lng":"70.75223210000001"}},{"_id":"5e170c59c27aa15cda0a1e67","modeOfTransport":"Van","postCode":"360005","name":"Nandini Vinaybhai Radadiya","std":"Sr.KgA","address":"\"Giriraj\" Naval nagar 2-B Behind Prakash high school Mavdi Main Road","__v":"0","splicedAddress":"\"Giriraj\" Naval nagar 2-B Behind Prakash high school Mavdi Main Road","newAddress":"\"Giriraj\"%20Naval%20nagar%202-B%20Behind%20Prakash%20high%20school%20Mavdi%20Main%20Road%20Rajkot%20Gujarat%20360005%20India","geoCode":{"lat":"22.2707895","lng":"70.7920468"}},{"_id":"5e170c59c27aa15cda0a1e68","modeOfTransport":"Parent","postCode":"360005","name":"Khushi Ankur Mungra","std":"Sr.KgA","address":"\"Arvi\" Block no 99 Ajanta Park Sadhuwaswani Road Rajkot","__v":"0","splicedAddress":"\"Arvi\" Block no 99 Ajanta Park Sadhuwaswani Road Rajkot","newAddress":"\"Arvi\"%20Block%20no%2099%20Ajanta%20Park%20Sadhuwaswani%20Road%20Rajkot%20Rajkot%20Gujarat%20360005%20India","geoCode":{"lat":"22.3082248","lng":"70.8019173"}},{"_id":"5e170c59c27aa15cda0a1e69","modeOfTransport":"Parent","postCode":"360005","name":"Rhythm Nilesh Kamariya","std":"Sr.KgB","address":"Unit no -4 block no -422 Nand parishar complex Sadhuvashvani Road","__v":"0","splicedAddress":"Unit no -4 block no -422 Nand parishar complex Sadhuvashvani Road","newAddress":"Unit%20no%20-4%20block%20no%20-422%20Nand%20parishar%20complex%20Sadhuvashvani%20Road%20Rajkot%20Gujarat%20360005%20India","geoCode":{"lat":"22.2939632","lng":"70.7589004"}},{"_id":"5e170c59c27aa15cda0a1e6a","modeOfTransport":"Van","postCode":"360006","name":"Jui Jigar Mehta","std":"Sr.KgB","address":"C-403 Royal Homes Near Nageshwar Jain Temple OPP central bank Ghanteshwar","__v":"0","splicedAddress":"C-403 Royal Homes Near Nageshwar Jain Temple OPP central bank Ghanteshwar","newAddress":"C-403%20Royal%20Homes%20Near%20Nageshwar%20Jain%20Temple%20OPP%20central%20bank%20Ghanteshwar%20Rajkot%20Gujarat%20360006%20India","geoCode":{"lat":"22.3398874","lng":"70.7591418"}},{"_id":"5e170c59c27aa15cda0a1e6b","modeOfTransport":"Van","postCode":"360003","name":"Sakshi Devraj Chauhan","std":"Sr.KgC","address":"Manharpara Near Thorada Police Station Rajkot","__v":"0","splicedAddress":"Manharpara Near Thorada Police Station Rajkot","newAddress":"Manharpara%20Near%20Thorada%20Police%20Station%20Rajkot%20Rajkot%20Gujarat%20360003%20India","geoCode":{"lat":"22.2918394","lng":"70.8222615"}},{"_id":"5e170c59c27aa15cda0a1e6c","modeOfTransport":"Van","postCode":"360005","name":"Navya Hiren Savjiyani","std":"Jr.KgB","address":"3 Kailash dhara park, 'Jala Ashish' b/h aalap green city,Raiya road","__v":"0","splicedAddress":"3 Kailash dhara park, 'Jala Ashish' b/h aalap green city,Raiya road","newAddress":"3%20Kailash%20dhara%20park,%20'Jala%20Ashish'%20b/h%20aalap%20green%20city,Raiya%20road%20Rajkot%20Gujarat%20360005%20India","geoCode":{"lat":"22.3013476","lng":"70.7572448"}},{"_id":"5e170c59c27aa15cda0a1e6d","modeOfTransport":"Van","postCode":"360002","name":"Pari  Vishalbhai Patel","std":"Jr.KgA","address":"Wing B,Amrutdhara Appt., b/h kothariya swimming pool,master soc. Main road","__v":"0","splicedAddress":"Wing B,Amrutdhara Appt., b/h kothariya swimming pool,master soc. Main road","newAddress":"Wing%20B,Amrutdhara%20Appt.,%20b/h%20kothariya%20swimming%20pool,master%20soc.%20Main%20road%20Rajkot%20Gujarat%20360002%20India","geoCode":{"lat":"22.2448214","lng":"70.8135856"}},{"_id":"5e170c59c27aa15cda0a1e6e","modeOfTransport":"Parent","postCode":"360005","name":"Dwija Purvesh Sakariya","std":"Jr.KgC","address":"Near Ram temple,b/h Om sai house, Raiya","__v":"0","splicedAddress":"Near Ram temple,b/h Om sai house, Raiya","newAddress":"Near%20Ram%20temple,b/h%20Om%20sai%20house,%20Raiya%20Rajkot%20Gujarat%20360005%20India","geoCode":{"lat":"22.3009546","lng":"70.7569805"}},{"_id":"5e170c59c27aa15cda0a1e6f","modeOfTransport":"Van","postCode":"360005","name":"Vrunda Vinodbhai Pansuriya","std":"Jr.KgA","address":"B-203 Sansakar city, Nr. Ramdham temple mavdi baypass,Mavdi","__v":"0","splicedAddress":"B-203 Sansakar city, Nr. Ramdham temple mavdi baypass,Mavdi","newAddress":"B-203%20Sansakar%20city,%20Nr.%20Ramdham%20temple%20mavdi%20baypass,Mavdi%20Rajkot%20Gujarat%20360005%20India","geoCode":{"lat":"22.2643535","lng":"70.78309569999999"}},{"_id":"5e170c59c27aa15cda0a1e70","modeOfTransport":"Parent","postCode":"360005","name":"Swara Navjyot Raval","std":"Jr.KgC","address":"Shri city,C-501,NR. Harivandana college,b/h saurashtra university,christ college road","__v":"0","splicedAddress":"Shri city,C-501,NR. Harivandana college,b/h saurashtra university,christ college road","newAddress":"Shri%20city,C-501,NR.%20Harivandana%20college,b/h%20saurashtra%20university,christ%20college%20road%20Rajkot%20Gujarat%20360005%20India","geoCode":{"lat":"22.2900751","lng":"70.736404"}},{"_id":"5e170c59c27aa15cda0a1e71","modeOfTransport":"Van","postCode":"360005","name":"Kahan   Renish Vachhani","std":"Jr.KgC","address":"Sadhu vasvani road,Shymal varlix,A wing 802, Nr pramukh swami auditorim","__v":"0","splicedAddress":"Sadhu vasvani road,Shymal varlix,A wing 802, Nr pramukh swami auditorim","newAddress":"Sadhu%20vasvani%20road,Shymal%20varlix,A%20wing%20802,%20Nr%20pramukh%20swami%20auditorim%20Rajkot%20Gujarat%20360005%20India","geoCode":{"lat":"22.300911","lng":"70.7578664"}},{"_id":"5e170c59c27aa15cda0a1e72","modeOfTransport":"Van","postCode":"360005","name":"Falak Jayesh Jethva","std":"Jr.KgB","address":"\"Jayesh\" Archana park-7, university road , near jiven shanti school","__v":"0","splicedAddress":"\"Jayesh\" Archana park-7, university road , near jiven shanti school","newAddress":"\"Jayesh\"%20Archana%20park-7,%20university%20road%20,%20near%20jiven%20shanti%20school%20Rajkot%20Gujarat%20360005%20India","geoCode":{"lat":"22.2886113","lng":"70.7636325"}},{"_id":"5e170c59c27aa15cda0a1e73","modeOfTransport":"Van","postCode":"360005","name":"Palak Sharadbhai Hansaliya","std":"Sr.KgB","address":"401-Ashtavashu app.,vimal gar,b/h alap avenue,university road","__v":"0","splicedAddress":"401-Ashtavashu app.,vimal gar,b/h alap avenue,university road","newAddress":"401-Ashtavashu%20app.,vimal%20gar,b/h%20alap%20avenue,university%20road%20Rajkot%20Gujarat%20360005%20India","geoCode":{"lat":"22.283151","lng":"70.7497132"}},{"_id":"5e170c59c27aa15cda0a1e74","modeOfTransport":"Parent","postCode":"360001","name":"Janvi Rajeshbhai Vadher","std":"Sr.KgA","address":"402-H,Aditya heights,gopal chowk,sadhu vasvani road ","__v":"0","splicedAddress":"402-H,Aditya heights,gopal chowk,sadhu vasvani road ","newAddress":"402-H,Aditya%20heights,gopal%20chowk,sadhu%20vasvani%20road%20%20Rajkot%20Gujarat%20360001%20India","geoCode":{"lat":"22.2954391","lng":"70.7612446"}},{"_id":"5e170c59c27aa15cda0a1e75","modeOfTransport":"Parent","postCode":"360005","name":"Krisha  Pranav Dobariya","std":"Sr.KgB","address":"\"And\" Blk no .25 Bansari Soc. B/H Central school Kalawad Road","__v":"0","splicedAddress":"\"And\" Blk no .25 Bansari Soc. B/H Central school Kalawad Road","newAddress":"\"And\"%20Blk%20no%20.25%20Bansari%20Soc.%20B/H%20Central%20school%20Kalawad%20Road%20Rajkot%20Gujarat%20360005%20India","geoCode":{"lat":"22.2816966","lng":"70.7622483"}},{"_id":"5e170c59c27aa15cda0a1e76","modeOfTransport":"van","postCode":"360005","name":"Meera Ajaybhai Hirapara","std":"Sr.KgA","address":"120 Chitrakutdham B/H Crystal mall, Klawad road","__v":"0","splicedAddress":"120 Chitrakutdham B/H Crystal mall, Klawad road","newAddress":"120%20Chitrakutdham%20B/H%20Crystal%20mall,%20Klawad%20road%20Rajkot%20Gujarat%20360005%20India","geoCode":{"lat":"22.279853","lng":"70.7631061"}},{"_id":"5e170c59c27aa15cda0a1e77","modeOfTransport":"Van","postCode":"360001","name":"Priyanshi Kamleshbhai Prajapati","std":"Sr.KgC","address":"E-401, Sopan habitat, Sadhu vasvani road,patidar chowk,near topland residency ","__v":"0","splicedAddress":"E-401, Sopan habitat, Sadhu vasvani road,patidar chowk,near topland residency ","newAddress":"E-401,%20Sopan%20habitat,%20Sadhu%20vasvani%20road,patidar%20chowk,near%20topland%20residency%20%20Rajkot%20Gujarat%20360001%20India","geoCode":{"lat":"22.2966504","lng":"70.7518496"}},{"_id":"5e170c59c27aa15cda0a1e78","modeOfTransport":"Parent","postCode":"360005","name":"Vidhiben Narendra Zala","std":"Sr.KgD","address":"\"Nidhi\" Ruxmani block no 7 ManigarB/H Rameshwarhall, Raioya road","__v":"0","splicedAddress":"\"Nidhi\" Ruxmani block no 7 ManigarB/H Rameshwarhall, Raioya road","newAddress":"\"Nidhi\"%20Ruxmani%20block%20no%207%20ManigarB/H%20Rameshwarhall,%20Raioya%20road%20Rajkot%20Gujarat%20360005%20India","geoCode":{"lat":"22.2677496","lng":"70.72581509999999"}},{"_id":"5e170c59c27aa15cda0a1e79","modeOfTransport":"Van","postCode":"360001","name":"Nirvi Vikas Kothari","std":"Sr.KgA","address":"3,Jagnath plot \"Jay vijay\" opp Akar Appt.","__v":"0","splicedAddress":"3,Jagnath plot \"Jay vijay\" opp Akar Appt.","newAddress":"3,Jagnath%20plot%20\"Jay%20vijay\"%20opp%20Akar%20Appt.%20Rajkot%20Gujarat%20360001%20India","geoCode":{"lat":"22.294504","lng":"70.794155"}},{"_id":"5e170c59c27aa15cda0a1e7a","modeOfTransport":"Parent","postCode":"360005","name":"Khanak Shakti Jani","std":"Sr.KgD","address":"\"Bahusmarna Krupa\" 6- vaishali gar, opp. Amrapalicinema , Raiya road","__v":"0","splicedAddress":"\"Bahusmarna Krupa\" 6- vaishali gar, opp. Amrapalicinema , Raiya road","newAddress":"\"Bahusmarna%20Krupa\"%206-%20vaishali%20gar,%20opp.%20Amrapalicinema%20,%20Raiya%20road%20Rajkot%20Gujarat%20360005%20India","geoCode":{"lat":"22.3009546","lng":"70.7569805"}},{"_id":"5e170c59c27aa15cda0a1e7b","modeOfTransport":"Van","postCode":"360007","name":"Aanya Mukeshkumar Gupta","std":"Sr.KgC","address":"Niket',33/A/1/2, Somth society, near raiya tel exchange opp Trimurti Balaji Mandir, 150 feet ring road","__v":"0","splicedAddress":"Niket',33/A/1/2, Somth society, near raiya tel exchange opp Trimurti Balaji Mandir, 150 feet ring road","newAddress":"Niket',33/A/1/2,%20Somth%20society,%20near%20raiya%20tel%20exchange%20opp%20Trimurti%20Balaji%20Mandir,%20150%20feet%20ring%20road%20Rajkot%20Gujarat%20360007%20India","geoCode":{"lat":"22.294347","lng":"70.769874"}},{"_id":"5e170c59c27aa15cda0a1e7c","modeOfTransport":"Van","postCode":"360005","name":"Maanya Gemishbhai Desai","std":"Sr.KgB","address":"Backbone platinium B -502 Sadhuvashvani Road","__v":"0","splicedAddress":"Backbone platinium B -502 Sadhuvashvani Road","newAddress":"Backbone%20platinium%20B%20-502%20Sadhuvashvani%20Road%20Rajkot%20Gujarat%20360005%20India","geoCode":{"lat":"22.2939632","lng":"70.7589004"}},{"_id":"5e170c59c27aa15cda0a1e7d","modeOfTransport":"Parent","postCode":"360005","name":"Manvi Ankurbhai Kalaria","std":"Sr.KgC","address":"\"avadh\" sarita park -3 nearmadhuvan park patidar chowk sadhuvashvani road","__v":"0","splicedAddress":"\"avadh\" sarita park -3 nearmadhuvan park patidar chowk sadhuvashvani road","newAddress":"\"avadh\"%20sarita%20park%20-3%20nearmadhuvan%20park%20patidar%20chowk%20sadhuvashvani%20road%20Rajkot%20Gujarat%20360005%20India","geoCode":{"lat":"22.294215","lng":"70.754809"}},{"_id":"5e170c59c27aa15cda0a1e7e","modeOfTransport":"Van","postCode":"360001","name":"Krisha Kaushik Joshi","std":"Sr.KgC","address":"\"Bhav Saurabha\" Tirupati-3 ,Raiya road ","__v":"0","splicedAddress":"\"Bhav Saurabha\" Tirupati-3 ,Raiya road ","newAddress":"\"Bhav%20Saurabha\"%20Tirupati-3%20,Raiya%20road%20%20Rajkot%20Gujarat%20360001%20India","geoCode":{"lat":"22.2983242","lng":"70.7858073"}},{"_id":"5e170c59c27aa15cda0a1e7f","modeOfTransport":"Parent","postCode":"360005","name":"Hiya Manishkumar Tank","std":"Sr.KgA","address":"\"Nyal karan\"Nr.Aaryalana Ambica park,opp ambica township,near aryaland,block no.132","__v":"0","splicedAddress":"\"Nyal karan\"Nr.Aaryalana Ambica park,opp ambica township,near aryaland,block no.132","newAddress":"\"Nyal%20karan\"Nr.Aaryalana%20Ambica%20park,opp%20ambica%20township,near%20aryaland,block%20no.132%20Rajkot%20Gujarat%20360005%20India","geoCode":{"lat":"22.2606583","lng":"70.76276"}},{"_id":"5e170c59c27aa15cda0a1e80","modeOfTransport":"Van","postCode":"360007","name":"Manashreeba Shivrajsinh  Jadeja","std":"Sr.KgB","address":",Dharam nagar , B/H Raj bank , ","__v":"0","splicedAddress":",Dharam nagar , B/H Raj bank , ","newAddress":",Dharam%20nagar%20,%20B/H%20Raj%20bank%20,%20%20Rajkot%20Gujarat%20360007%20India","geoCode":{"lat":"22.2974583","lng":"70.8010288"}},{"_id":"5e170c59c27aa15cda0a1e81","modeOfTransport":"Van","postCode":"360005","name":"Jiya Mayurbhai Savaliya","std":"Sr.KgD","address":"Chandra park 2, St.no. 17, block no.267,near big bazar,150 feet ring road","__v":"0","splicedAddress":"Chandra park 2, St.no. 17, block no.267,near big bazar,150 feet ring road","newAddress":"Chandra%20park%202,%20St.no.%2017,%20block%20no.267,near%20big%20bazar,150%20feet%20ring%20road%20Rajkot%20Gujarat%20360005%20India","geoCode":{"lat":"22.294709","lng":"70.76987079999999"}},{"_id":"5e170c59c27aa15cda0a1e82","modeOfTransport":"Parent","postCode":"360005","name":"Swara Bhaveshbhai Kanani","std":"Sr.KgB","address":"nd vihar appartment,near sadhu vashvai road,tower no.1,block no 113,near nd parisad","__v":"0","splicedAddress":"nd vihar appartment,near sadhu vashvai road,tower no.1,block no 113,near nd parisad","newAddress":"nd%20vihar%20appartment,near%20sadhu%20vashvai%20road,tower%20no.1,block%20no%20113,near%20nd%20parisad%20Rajkot%20Gujarat%20360005%20India","geoCode":{"lat":"47.5514926","lng":"-101.0020119"}},{"_id":"5e170c59c27aa15cda0a1e83","modeOfTransport":"","postCode":"360005","name":"Arohi Rameshbhai Kotadia","std":"Sr.KgD","address":"Parivar recidency block no-101 chaitanya bunglow ","__v":"0","splicedAddress":"Parivar recidency block no-101 chaitanya bunglow ","newAddress":"Parivar%20recidency%20block%20no-101%20chaitanya%20bunglow%20%20Rajkot%20Gujarat%20360005%20India","geoCode":{"lat":"22.3087459","lng":"70.80179389999999"}},{"_id":"5e170c59c27aa15cda0a1e84","modeOfTransport":"Parent","postCode":"360005","name":"Vansheeka Sanjaybhai Sodhatar","std":"Sr.KgC","address":"B-2132 , Yogeshwar park flat , near janak puri society","__v":"0","splicedAddress":"B-2132 , Yogeshwar park flat , near janak puri society","newAddress":"B-2132%20,%20Yogeshwar%20park%20flat%20,%20near%20janak%20puri%20society%20Rajkot%20Gujarat%20360005%20India","geoCode":{"lat":"22.2893083","lng":"70.7566183"}},{"key":[{"_id":"5e170c59c27aa15cda0a1e85","modeOfTransport":"Van","postCode":"360005","name":"Vaidehi Krunal Kotadiya","std":"Sr.KgD","address":"19-Chandra park society,plot no.328,near big bazar,150 feet ring road","__v":"0","splicedAddress":"19-Chandra park society,plot no.328,near big bazar,150 feet ring road","newAddress":"19-Chandra%20park%20society,plot%20no.328,near%20big%20bazar,150%20feet%20ring%20road%20Rajkot%20Gujarat%20360005%20India","geoCode":{"lat":"22.2799913","lng":"70.77541110000001"}},{"_id":"5e170c59c27aa15cda0a1e86","modeOfTransport":"Van","postCode":"360007","name":"Mahi  Maheshbhai Makwana","std":"Sr.KgC","address":"\"Ravechi Krupa\" 1- dharam gar, Gandhigram 150 feet ring road ","__v":"0","splicedAddress":"\"Ravechi Krupa\" 1- dharam gar, Gandhigram 150 feet ring road ","newAddress":"\"Ravechi%20Krupa\"%201-%20dharam%20gar,%20Gandhigram%20150%20feet%20ring%20road%20%20Rajkot%20Gujarat%20360007%20India","geoCode":{"lat":"22.3111526","lng":"70.79902419999999"}},{"_id":"5e170c59c27aa15cda0a1e87","modeOfTransport":"Van","postCode":"360005","name":"Niva Dharmeshbhai Moliya","std":"Sr.KgB","address":"Madhapar jamnagar road,Rajput wadi street T.1","__v":"0","splicedAddress":"Madhapar jamnagar road,Rajput wadi street T.1","newAddress":"Madhapar%20jamnagar%20road,Rajput%20wadi%20street%20T.1%20Rajkot%20Gujarat%20360005%20India","geoCode":{"lat":"22.3175184","lng":"70.7864026"}},{"_id":"5e170c59c27aa15cda0a1e88","modeOfTransport":"Van","postCode":"360005","name":"Hiya Kishorbhai Gadhiya","std":"Sr.KgB","address":"Nanavati chowk,santosh park,street no.2 block no.41","__v":"0","splicedAddress":"Nanavati chowk,santosh park,street no.2 block no.41","newAddress":"Nanavati%20chowk,santosh%20park,street%20no.2%20block%20no.41%20Rajkot%20Gujarat%20360005%20India","geoCode":{"lat":"22.3054267","lng":"70.76842289999999"}},{"_id":"5e170c59c27aa15cda0a1e89","modeOfTransport":"Van","postCode":"360006","name":"Dhyani Mayurbhai Vekariya","std":"Sr.KgA","address":"AT Madhapar,vrundavan society,street no.2 ,jamgar road","__v":"0","splicedAddress":"AT Madhapar,vrundavan society,street no.2 ,jamgar road","newAddress":"AT%20Madhapar,vrundavan%20society,street%20no.2%20,jamgar%20road%20Rajkot%20Gujarat%20360006%20India","geoCode":{"lat":"22.3336099","lng":"70.76192329999999"}},{"_id":"5e170c59c27aa15cda0a1e8a","modeOfTransport":"Van","postCode":"360001","name":"Khushi Akash Gohel","std":"Sr.KgD","address":"Bipin Villa' 16 ,Prahlad plot,ashapura main road ","__v":"0","splicedAddress":"Bipin Villa' 16 ,Prahlad plot,ashapura main road ","newAddress":"Bipin%20Villa'%2016%20,Prahlad%20plot,ashapura%20main%20road%20%20Rajkot%20Gujarat%20360001%20India","geoCode":{"lat":"22.2932491","lng":"70.8066061"}},{"_id":"5e170c59c27aa15cda0a1e8b","modeOfTransport":"Parent","postCode":"360005","name":"Riva Ashokkumar  Kagathara","std":"Sr.KgD","address":"I -101 shilpan near T.N. Rao Coolege","__v":"0","splicedAddress":"I -101 shilpan near T.N. Rao Coolege","newAddress":"I%20-101%20shilpan%20near%20T.N.%20Rao%20Coolege%20Rajkot%20Gujarat%20360005%20India","geoCode":{"lat":"22.2950008","lng":"70.7487773"}},{"_id":"5e170c59c27aa15cda0a1e8c","modeOfTransport":"Parent","postCode":"360001","name":"Purnima Chetanbhai Rola","std":"Sr.KgC","address":"\"Parisharam\" santosh p[ark street no -1 150 feet ring road opp Straling hospital ","__v":"0","splicedAddress":"\"Parisharam\" santosh p[ark street no -1 150 feet ring road opp Straling hospital ","newAddress":"\"Parisharam\"%20santosh%20p[ark%20street%20no%20-1%20150%20feet%20ring%20road%20opp%20Straling%20hospital%20%20Rajkot%20Gujarat%20360001%20India","geoCode":{"lat":"22.3055755","lng":"70.76878669999999"}},{"_id":"5e170c59c27aa15cda0a1e8d","modeOfTransport":"Van","postCode":"360005","name":"Krutha Hetav Joshi","std":"Sr.KgD","address":"\"Bhavani Krupa\" tulshi park society -2 ,Near Raiya Telephone excchange , 150 feet ring road","__v":"0","splicedAddress":"\"Bhavani Krupa\" tulshi park society -2 ,Near Raiya Telephone excchange , 150 feet ring road","newAddress":"\"Bhavani%20Krupa\"%20tulshi%20park%20society%20-2%20,Near%20Raiya%20Telephone%20excchange%20,%20150%20feet%20ring%20road%20Rajkot%20Gujarat%20360005%20India","geoCode":{"lat":"22.2941226","lng":"70.76984709999999"}},{"_id":"5e170c59c27aa15cda0a1e8e","modeOfTransport":"Parent","postCode":"360005","name":"Dharmi Naresh Ambaliya","std":"Sr.KgC","address":"University road akashvani chowk  quarters no -32 b-60 ","__v":"0","splicedAddress":"University road akashvani chowk  quarters no -32 b-60 ","newAddress":"University%20road%20akashvani%20chowk%20%20quarters%20no%20-32%20b-60%20%20Rajkot%20Gujarat%20360005%20India","geoCode":{"lat":"22.2878017","lng":"70.75950999999999"}},{"_id":"5e170c59c27aa15cda0a1e8f","modeOfTransport":"Van","postCode":"360005","name":"Harmi  Vimalbhai Kalariya","std":"Sr.KgD","address":"\"Dwarkadham\" B-4 Kalawad road Satyasai Marg","__v":"0","splicedAddress":"\"Dwarkadham\" B-4 Kalawad road Satyasai Marg","newAddress":"\"Dwarkadham\"%20B-4%20Kalawad%20road%20Satyasai%20Marg%20Rajkot%20Gujarat%20360005%20India","geoCode":{"lat":"22.290152","lng":"70.77759600000002"}},{"_id":"5e170c59c27aa15cda0a1e90","modeOfTransport":"Van","postCode":"360005","name":"Jelam Bikenbhai Vachhani","std":"Jr.KgA","address":"Sadhu vasvani road,Shymal varlix,A wing 802, Nr pramukh swami auditorim","__v":"0","splicedAddress":"Sadhu vasvani road,Shymal varlix,A wing 802, Nr pramukh swami auditorim","newAddress":"Sadhu%20vasvani%20road,Shymal%20varlix,A%20wing%20802,%20Nr%20pramukh%20swami%20auditorim%20Rajkot%20Gujarat%20360005%20India","geoCode":{"lat":"22.300911","lng":"70.7578664"}},{"_id":"5e170c59c27aa15cda0a1e91","modeOfTransport":"Parent","postCode":"360005","name":"Vandini Baij Sen","std":"Sr.KgC","address":"Block no -35 Quarter no -273 ,A.G. Satff colony , Near Saurashtra university campus ","__v":"0","splicedAddress":"Block no -35 Quarter no -273 ,A.G. Satff colony , Near Saurashtra university campus ","newAddress":"Block%20no%20-35%20Quarter%20no%20-273%20,A.G.%20Satff%20colony%20,%20Near%20Saurashtra%20university%20campus%20%20Rajkot%20Gujarat%20360005%20India","geoCode":{"lat":"22.2930753","lng":"70.7436094"}},{"_id":"5e170c59c27aa15cda0a1e92","modeOfTransport":"Parent","postCode":"360007","name":"Aanshi Hiren Oza","std":"Sr.KgC","address":"\"Gurumadhi\" B 16  prabhu recidency , Dwarkadhis park , Raiya road","__v":"0","splicedAddress":"\"Gurumadhi\" B 16  prabhu recidency , Dwarkadhis park , Raiya road","newAddress":"\"Gurumadhi\"%20B%2016%20%20prabhu%20recidency%20,%20Dwarkadhis%20park%20,%20Raiya%20road%20Rajkot%20Gujarat%20360007%20India","geoCode":{"lat":"22.3153315","lng":"70.7700527"}},{"_id":"5e170c59c27aa15cda0a1e93","modeOfTransport":"Parent","postCode":"360005","name":"Mishti Jigneshbhai Ayar","std":"Sr.KgB","address":"Prashil park block no :82","__v":"0","splicedAddress":"Prashil park block no :82","newAddress":"Prashil%20park%20block%20no%20:82%20Rajkot%20Gujarat%20360005%20India","geoCode":{"lat":"22.2829948","lng":"70.7452905"}},{"_id":"5e170c59c27aa15cda0a1e94","modeOfTransport":"Van","postCode":"360005","name":"Maheshwariba Rajeshbhai Dhakhda","std":"Sr.KgD","address":"Parijat recidency block no -1 sadhu vashvani road,","__v":"0","splicedAddress":"Parijat recidency block no -1 sadhu vashvani road,","newAddress":"Parijat%20recidency%20block%20no%20-1%20sadhu%20vashvani%20road,%20Rajkot%20Gujarat%20360005%20India","geoCode":{"lat":"22.2905495","lng":"70.7607159"}},{"_id":"5e170c59c27aa15cda0a1e95","modeOfTransport":"Van","postCode":"360005","name":"Aaradhya Hiteshbhai Vaghasiya","std":"Sr.KgC","geoCode":{"lat":"22.2762085","lng":"70.7711769"},"address":"A-7'Dwarika dham Apartment' , opp. Aalap Haritage , Satya Sai road, rajkot","__v":"0","splicedAddress":"A-7'Dwarika dham Apartment' , opp. Aalap Haritage , Satya Sai road, rajkot","newAddress":"A-7'Dwarika%20dham%20Apartment'%20,%20opp.%20Aalap%20Haritage%20,%20Satya%20Sai%20road,%20rajkot%20Rajkot%20Gujarat%20360005%20India"},{"_id":"5e170c59c27aa15cda0a1e96","modeOfTransport":"Parent","postCode":"360005","name":"Dhyani Manishbhai Kathrotiya","std":"Jr.KgA","geoCode":{"lat":"22.2923557","lng":"70.7624696"},"address":"Block n-202', Tulsi Avenue Appartment',  kailash park, university road","__v":"0","splicedAddress":"Block n-202', Tulsi Avenue Appartment',  kailash park, university road","newAddress":"Block%20n-202',%20Tulsi%20Avenue%20Appartment',%20%20kailash%20park,%20university%20road%20Rajkot%20Gujarat%20360005%20India"},{"_id":"5e170c59c27aa15cda0a1e97","modeOfTransport":"Parent","postCode":"360005","name":"Hetviben   Nikunj Gondaliya","std":"Jr.KgA","address":"Not decided","__v":"0","splicedAddress":"Not decided","newAddress":"Not%20decided%20Rajkot%20Gujarat%20360005%20India","geoCode":{"lat":"22.2726956","lng":"70.74063579999999"}},{"_id":"5e170c59c27aa15cda0a1e98","modeOfTransport":"Parent","postCode":"360001","name":"Viya Vershi Odedra","std":"Jr.KgC","address":"Vasant Marvel,C-302,Vimal nagar main road","__v":"0","splicedAddress":"Vasant Marvel,C-302,Vimal nagar main road","newAddress":"Vasant%20Marvel,C-302,Vimal%20nagar%20main%20road%20Rajkot%20Gujarat%20360001%20India","geoCode":{"lat":"22.2812458","lng":"70.75157779999999"}},{"_id":"5e170c59c27aa15cda0a1e99","modeOfTransport":"Van","postCode":"360003","name":"Aarya  Kamlesh Sankhavara","std":"Jr.KgA","address":"2, Shree ranchodnagar society,opp. Ambaji refinary,Sant kabir road","__v":"0","splicedAddress":"2, Shree ranchodnagar society,opp. Ambaji refinary,Sant kabir road","newAddress":"2,%20Shree%20ranchodnagar%20society,opp.%20Ambaji%20refinary,Sant%20kabir%20road%20Rajkot%20Gujarat%20360003%20India","geoCode":{"lat":"22.3024659","lng":"70.8140085"}},{"_id":"5e170c59c27aa15cda0a1e9a","modeOfTransport":"Van","postCode":"360005","name":"Pooja Kiranbhai Makadia","std":"Jr.KgB","address":"202,Subh complex Nr Dr. Mathur's clinic B/H Raiya exchange 150 feet ring road","__v":"0","splicedAddress":"202,Subh complex Nr Dr. Mathur's clinic B/H Raiya exchange 150 feet ring road","newAddress":"202,Subh%20complex%20Nr%20Dr.%20Mathur's%20clinic%20B/H%20Raiya%20exchange%20150%20feet%20ring%20road%20Rajkot%20Gujarat%20360005%20India","geoCode":{"lat":"22.2936101","lng":"70.7673099"}},{"_id":"5e170c59c27aa15cda0a1e9b","modeOfTransport":"Parent","postCode":"360004","name":"Jesal  Hiteshbhai Rathod","std":"Jr.KgA","address":"Nana mauva circle , vividh karmchari society plot no :18","__v":"0","splicedAddress":"Nana mauva circle , vividh karmchari society plot no :18","newAddress":"Nana%20mauva%20circle%20,%20vividh%20karmchari%20society%20plot%20no%20:18%20Rajkot%20Gujarat%20360004%20India","geoCode":{"lat":"22.2566168","lng":"70.79524099999999"}},{"_id":"5e170c59c27aa15cda0a1e9c","modeOfTransport":"Van","postCode":"360005","name":"Aarjavi Surpalbhai Nakum","std":"Sr.KgB","address":"Soham Paramount-5, Rushikesh Society behind sarkari ayurvedic hospital univeristy road","__v":"0","splicedAddress":"Soham Paramount-5, Rushikesh Society behind sarkari ayurvedic hospital univeristy road","newAddress":"Soham%20Paramount-5,%20Rushikesh%20Society%20behind%20sarkari%20ayurvedic%20hospital%20univeristy%20road%20Rajkot%20Gujarat%20360005%20India","geoCode":{"lat":"22.288017","lng":"70.755967"}},{"_id":"5e170c59c27aa15cda0a1e9d","modeOfTransport":"Van","postCode":"360005","name":"Dhyana Sandipbhai Amipara","std":"Sr.KgC","address":"Shree krushan kunj , street no :4 , tirupati park , nananmava road","__v":"0","splicedAddress":"Shree krushan kunj , street no :4 , tirupati park , nananmava road","newAddress":"Shree%20krushan%20kunj%20,%20street%20no%20:4%20,%20tirupati%20park%20,%20nananmava%20road%20Rajkot%20Gujarat%20360005%20India","geoCode":{"lat":"22.2892224","lng":"70.76979349999999"}},{"_id":"5e170c59c27aa15cda0a1e9e","modeOfTransport":"","postCode":"360007","name":"Manya Tusharkumar Radia","std":"Jr.KgC","address":"\"Achyut\"2-Rameshwar Park Block no 5 Street no 5 Raiya Road","__v":"0","splicedAddress":"\"Achyut\"2-Rameshwar Park Block no 5 Street no 5 Raiya Road","newAddress":"\"Achyut\"2-Rameshwar%20Park%20Block%20no%205%20Street%20no%205%20Raiya%20Road%20Rajkot%20Gujarat%20360007%20India","geoCode":{"lat":"22.2984731","lng":"70.7827513"}},{"_id":"5e170c59c27aa15cda0a1e9f","modeOfTransport":"","postCode":"360002","name":"Aaditri Bharatbhai Gadhiya","std":"NurA","address":"Gitanjali park, street 7, B/h. Anand nagar quarter, Kothariya main road","__v":"0","splicedAddress":"Gitanjali park, street 7, B/h. Anand nagar quarter, Kothariya main road","newAddress":"Gitanjali%20park,%20street%207,%20B/h.%20Anand%20nagar%20quarter,%20Kothariya%20main%20road%20Rajkot%20Gujarat%20360002%20India","geoCode":{"lat":"22.2651023","lng":"70.7864271"}},{"_id":"5e170c59c27aa15cda0a1ea0","modeOfTransport":"","postCode":"360002","name":"Jansi Hiteshbhai Gadhiya","std":"NurA","address":"101-Shivam Complex, Shree Ram park, Opp. Raj bank, Kothariya main road","__v":"0","splicedAddress":"101-Shivam Complex, Shree Ram park, Opp. Raj bank, Kothariya main road","newAddress":"101-Shivam%20Complex,%20Shree%20Ram%20park,%20Opp.%20Raj%20bank,%20Kothariya%20main%20road%20Rajkot%20Gujarat%20360002%20India","geoCode":{"lat":"22.256097","lng":"70.8168477"}},{"_id":"5e170c59c27aa15cda0a1ea1","modeOfTransport":"","postCode":"360005","name":"Jesvee Bhavinbhai Ghetia","std":"NurA","address":"302-Appt Shrirang ram park main road, kalawad road, Opp. Atmiya college","__v":"0","splicedAddress":"302-Appt Shrirang ram park main road, kalawad road, Opp. Atmiya college","newAddress":"302-Appt%20Shrirang%20ram%20park%20main%20road,%20kalawad%20road,%20Opp.%20Atmiya%20college%20Rajkot%20Gujarat%20360005%20India","geoCode":{"lat":"22.2819131","lng":"70.7679852"}},{"_id":"5e170c59c27aa15cda0a1ea2","modeOfTransport":"","postCode":"360005","name":"Ruhi Rashikbhai Baraiya","std":"NurA","address":"Sadhu Vaswanu road, Janakpuri Soc -4, B-172","__v":"0","splicedAddress":"Sadhu Vaswanu road, Janakpuri Soc -4, B-172","newAddress":"Sadhu%20Vaswanu%20road,%20Janakpuri%20Soc%20-4,%20B-172%20Rajkot%20Gujarat%20360005%20India","geoCode":{"lat":"22.2898646","lng":"70.76120259999999"}},{"_id":"5e170c59c27aa15cda0a1ea3","modeOfTransport":"","postCode":"360005","name":"Aayat Ashifbhai Shama","std":"NurA","address":"B-2, Amarnath park-2, Near Gangotri park, Opp. Kidney Hospital","__v":"0","splicedAddress":"B-2, Amarnath park-2, Near Gangotri park, Opp. Kidney Hospital","newAddress":"B-2,%20Amarnath%20park-2,%20Near%20Gangotri%20park,%20Opp.%20Kidney%20Hospital%20Rajkot%20Gujarat%20360005%20India","geoCode":{"lat":"22.2922188","lng":"70.74974220000001"}},{"_id":"5e170c59c27aa15cda0a1ea4","modeOfTransport":"","postCode":"360002","name":"Maahi  Prakashbhai Garsondiya","std":"NurA","address":"\"Bramhani Krupa\", new Rameshwar Soc., Stree 5, Opp. Swami narayan Temple","__v":"0","splicedAddress":"\"Bramhani Krupa\", new Rameshwar Soc., Stree 5, Opp. Swami narayan Temple","newAddress":"\"Bramhani%20Krupa\",%20new%20Rameshwar%20Soc.,%20Stree%205,%20Opp.%20Swami%20narayan%20Temple%20Rajkot%20Gujarat%20360002%20India","geoCode":{"lat":"22.2647714","lng":"70.8071356"}},{"_id":"5e170c59c27aa15cda0a1ea5","modeOfTransport":"","postCode":"360005","name":"Jenny Sandipkumar Kanani","std":"NurA","address":"13-Surya park - F, Opp., Chandan Super Market, Amin marg","__v":"0","splicedAddress":"13-Surya park - F, Opp., Chandan Super Market, Amin marg","newAddress":"13-Surya%20park%20-%20F,%20Opp.,%20Chandan%20Super%20Market,%20Amin%20marg%20Rajkot%20Gujarat%20360005%20India","geoCode":{"lat":"22.285342","lng":"70.77779699999999"}},{"_id":"5e170c59c27aa15cda0a1ea6","modeOfTransport":"","postCode":"360005","name":"Yanti Hitulkumar Patel","std":"NurA","address":"D-101, Shyamal Vatika, Near T. N Rao School, Gangotri park main road","__v":"0","splicedAddress":"D-101, Shyamal Vatika, Near T. N Rao School, Gangotri park main road","newAddress":"D-101,%20Shyamal%20Vatika,%20Near%20T.%20N%20Rao%20School,%20Gangotri%20park%20main%20road%20Rajkot%20Gujarat%20360005%20India","geoCode":{"lat":"22.2951485","lng":"70.7464348"}},{"_id":"5e170c59c27aa15cda0a1ea7","modeOfTransport":"","postCode":"360005","name":"Veera Vishal Hirani","std":"NurA","address":"B-96, Alap Avenue, Near Pushkardham Soc., University road","__v":"0","splicedAddress":"B-96, Alap Avenue, Near Pushkardham Soc., University road","newAddress":"B-96,%20Alap%20Avenue,%20Near%20Pushkardham%20Soc.,%20University%20road%20Rajkot%20Gujarat%20360005%20India","geoCode":{"lat":"22.2876452","lng":"70.7622956"}},{"_id":"5e170c59c27aa15cda0a1ea8","modeOfTransport":"","postCode":"360005","name":"Trusha Nileshbhai Bharadiya","std":"Jr.KgC","address":"B-87, Siddhi Vinayak Soc. Opp. Ayodhya Chowk, 150 feet ring road","__v":"0","splicedAddress":"B-87, Siddhi Vinayak Soc. Opp. Ayodhya Chowk, 150 feet ring road","newAddress":"B-87,%20Siddhi%20Vinayak%20Soc.%20Opp.%20Ayodhya%20Chowk,%20150%20feet%20ring%20road%20Rajkot%20Gujarat%20360005%20India","geoCode":{"lat":"22.280098","lng":"70.774952"}},{"_id":"5e170c59c27aa15cda0a1ea9","modeOfTransport":"","postCode":"360006","name":"Moxika Nishantkumar Joshi","std":"Jr.KgC","geoCode":{"lat":"22.3349391","lng":"70.7584865"},"address":" B-403, 'Shree Shankheshwar-4', Near Patel Chowk, Nageshwar Temple, Jamnagar Road, Rajkot","__v":"0","splicedAddress":" B-403, 'Shree Shankheshwar-4', Near Patel Chowk, Nageshwar Temple, Jamnagar Road, Rajkot","newAddress":"%20B-403,%20'Shree%20Shankheshwar-4',%20Near%20Patel%20Chowk,%20Nageshwar%20Temple,%20Jamnagar%20Road,%20Rajkot%20Rajkot%20Gujarat%20360006%20India"},{"_id":"5e170c59c27aa15cda0a1eaa","modeOfTransport":"","postCode":"360004","name":"Aarvi Kalpesh Dalsaniya","std":"Jr.KgA","geoCode":{"lat":"22.2647372","lng":"70.7652514"},"address":"\"Umavanshi\", New gandhinagar Co-Operating Housing Society, Street 8/B, B/h. Shashtri nagar, Nana Mauva Road, rajkot","__v":"0","splicedAddress":"\"Umavanshi\", New gandhinagar Co-Operating Housing Society, Street 8/B, B/h. Shashtri nagar, Nana Mauva Road, rajkot","newAddress":"\"Umavanshi\",%20New%20gandhinagar%20Co-Operating%20Housing%20Society,%20Street%208/B,%20B/h.%20Shashtri%20nagar,%20Nana%20Mauva%20Road,%20rajkot%20Rajkot%20Gujarat%20360004%20India"},{"_id":"5e170c59c27aa15cda0a1eab","modeOfTransport":"","postCode":"360005","name":"Mahek Atulbhai Patel","std":"Jr.KgA","address":"D-201, Shyamal Vatika, Near T.N. Rao College, Gayatri main road, University road","__v":"0","splicedAddress":"D-201, Shyamal Vatika, Near T.N. Rao College, Gayatri main road, University road","newAddress":"D-201,%20Shyamal%20Vatika,%20Near%20T.N.%20Rao%20College,%20Gayatri%20main%20road,%20University%20road%20Rajkot%20Gujarat%20360005%20India","geoCode":{"lat":"22.2951494","lng":"70.7463071"}},{"_id":"5e170c59c27aa15cda0a1eac","modeOfTransport":"","postCode":"360005","name":"Charvi Chiragbhai Gajera","std":"Jr.KgA","address":"18, Block no. 402, Adinath Appt","__v":"0","splicedAddress":"18, Block no. 402, Adinath Appt","newAddress":"18,%20Block%20no.%20402,%20Adinath%20Appt%20Rajkot%20Gujarat%20360005%20India","geoCode":{"lat":"22.2726956","lng":"70.74063579999999"}},{"_id":"5e170c59c27aa15cda0a1ead","modeOfTransport":"","postCode":"360004","name":"Vanshika Gaurav Bhalodiya","std":"Jr.KgC","address":"Dearm city, E-701, Mavdi Kankot Road","__v":"0","splicedAddress":"Dearm city, E-701, Mavdi Kankot Road","newAddress":"Dearm%20city,%20E-701,%20Mavdi%20Kankot%20Road%20Rajkot%20Gujarat%20360004%20India","geoCode":{"lat":"22.2546762","lng":"70.7729478"}},{"_id":"5e170c59c27aa15cda0a1eae","modeOfTransport":"","postCode":"360007","name":"Tirtha Anilbhai Nadiyapara","std":"Jr.KgB","address":"\"Bhagvat\" 6- Mochinagar, Street no. 1, near Pathak school, 150 feet ring road, Gandhigram","__v":"0","splicedAddress":"\"Bhagvat\" 6- Mochinagar, Street no. 1, near Pathak school, 150 feet ring road, Gandhigram","newAddress":"\"Bhagvat\"%206-%20Mochinagar,%20Street%20no.%201,%20near%20Pathak%20school,%20150%20feet%20ring%20road,%20Gandhigram%20Rajkot%20Gujarat%20360007%20India","geoCode":{"lat":"22.2720691","lng":"70.7790243"}},{"_id":"5e170c59c27aa15cda0a1eaf","modeOfTransport":"","postCode":"360007","name":"Jayvi Jaydeep Pandya","std":"Jr.KgC","address":"\"Sadhana\" Appt., B-303, Somnath 2, Kidvay nagar main road","__v":"0","splicedAddress":"\"Sadhana\" Appt., B-303, Somnath 2, Kidvay nagar main road","newAddress":"\"Sadhana\"%20Appt.,%20B-303,%20Somnath%202,%20Kidvay%20nagar%20main%20road%20Rajkot%20Gujarat%20360007%20India","geoCode":{"lat":"22.2544855","lng":"70.8138755"}},{"_id":"5e170c59c27aa15cda0a1eb0","modeOfTransport":"","postCode":"360007","name":"Gayatriba Yashpalsinh Zala","std":"Jr.KgC","address":"\"Shiv Shakti\", 3/4 Shanti Niketan park 1, B/h. Giriraj nagar, Near raiya circle, 150 feet ring road","__v":"0","splicedAddress":"\"Shiv Shakti\", 3/4 Shanti Niketan park 1, B/h. Giriraj nagar, Near raiya circle, 150 feet ring road","newAddress":"\"Shiv%20Shakti\",%203/4%20Shanti%20Niketan%20park%201,%20B/h.%20Giriraj%20nagar,%20Near%20raiya%20circle,%20150%20feet%20ring%20road%20Rajkot%20Gujarat%20360007%20India","geoCode":{"lat":"22.301812","lng":"70.76845589999999"}},{"_id":"5e170c59c27aa15cda0a1eb1","modeOfTransport":"","postCode":"360006","name":"Heer Jignesh Chandarana","std":"Jr.KgC","address":"\"Jalaram krupa\", 2, Punit nagar, Street no-4, Jamnagar road","__v":"0","splicedAddress":"\"Jalaram krupa\", 2, Punit nagar, Street no-4, Jamnagar road","newAddress":"\"Jalaram%20krupa\",%202,%20Punit%20nagar,%20Street%20no-4,%20Jamnagar%20road%20Rajkot%20Gujarat%20360006%20India","geoCode":{"lat":"22.2529859","lng":"70.786311"}},{"_id":"5e170c59c27aa15cda0a1eb2","modeOfTransport":"","postCode":"360006","name":"Swara Ghanshyam Moliya","std":"Jr.KgC","address":"Jamnagar road, Madhapar, Rajpuvadi street, Madhapar","__v":"0","splicedAddress":"Jamnagar road, Madhapar, Rajpuvadi street, Madhapar","newAddress":"Jamnagar%20road,%20Madhapar,%20Rajpuvadi%20street,%20Madhapar%20Rajkot%20Gujarat%20360006%20India","geoCode":{"lat":"22.3265908","lng":"70.77328899999999"}},{"_id":"5e170c59c27aa15cda0a1eb3","modeOfTransport":"","postCode":"360005","name":"Shriya Vipulbhai Ramoliya","std":"Jr.KgC","address":"Nand Village, Tower No-7, Flat No. 733, Near Patidar chowk, B/h. Vasant Vihar","__v":"0","splicedAddress":"Nand Village, Tower No-7, Flat No. 733, Near Patidar chowk, B/h. Vasant Vihar","newAddress":"Nand%20Village,%20Tower%20No-7,%20Flat%20No.%20733,%20Near%20Patidar%20chowk,%20B/h.%20Vasant%20Vihar%20Rajkot%20Gujarat%20360005%20India","geoCode":{"lat":"22.2956634","lng":"70.7516006"}},{"_id":"5e170c59c27aa15cda0a1eb4","modeOfTransport":"","postCode":"360006","name":"Griva Jaydeepbhai Moliya","std":"Jr.KgB","geoCode":{"lat":"22.321494","lng":"70.7332999"},"address":"'Khodiyar Nivas', Ishwariya Mahadev road, Near Fatak, Madhapar","__v":"0","splicedAddress":"'Khodiyar Nivas', Ishwariya Mahadev road, Near Fatak, Madhapar","newAddress":"'Khodiyar%20Nivas',%20Ishwariya%20Mahadev%20road,%20Near%20Fatak,%20Madhapar%20Rajkot%20Gujarat%20360006%20India"},{"_id":"5e170c59c27aa15cda0a1eb5","modeOfTransport":"","postCode":"360005","name":"Jency Renishkumar Chapla","std":"Jr.KgB","address":"8 Janakpuri, Sadhu vaswani road","__v":"0","splicedAddress":"8 Janakpuri, Sadhu vaswani road","newAddress":"8%20Janakpuri,%20Sadhu%20vaswani%20road%20Rajkot%20Gujarat%20360005%20India","geoCode":{"lat":"22.2939632","lng":"70.7589004"}},{"_id":"5e170c59c27aa15cda0a1eb6","modeOfTransport":"","postCode":"360004","name":"Diya Ghanshyambhai Vekariya","std":"Jr.KgB","address":"2-Sardar nagar, Sardar nagar soc Community hall, Mavdi plot","__v":"0","splicedAddress":"2-Sardar nagar, Sardar nagar soc Community hall, Mavdi plot","newAddress":"2-Sardar%20nagar,%20Sardar%20nagar%20soc%20Community%20hall,%20Mavdi%20plot%20Rajkot%20Gujarat%20360004%20India","geoCode":{"lat":"22.2692245","lng":"70.7847877"}}]},{"key":[{"_id":"5e170c59c27aa15cda0a1eb7","modeOfTransport":"","postCode":"360005","name":"Heer Amit Kalaria","std":"Jr.KgA","address":"Trilok Appt., C-17, 1st Floor, 2-Ravi Ratna Park, 150 feet ring road","__v":"0","splicedAddress":"Trilok Appt., C-17, 1st Floor, 2-Ravi Ratna Park, 150 feet ring road","newAddress":"Trilok%20Appt.,%20C-17,%201st%20Floor,%202-Ravi%20Ratna%20Park,%20150%20feet%20ring%20road%20Rajkot%20Gujarat%20360005%20India","geoCode":{"lat":"22.290765","lng":"70.7685119"}},{"_id":"5e170c59c27aa15cda0a1eb8","modeOfTransport":"","postCode":"360004","name":"Aarohi Dhavalbhai Viramgama","std":"Jr.KgA","address":"F-404, Shantivan Param, Ambika Town ship, Near RPS School, Mavdi","__v":"0","splicedAddress":"F-404, Shantivan Param, Ambika Town ship, Near RPS School, Mavdi","newAddress":"F-404,%20Shantivan%20Param,%20Ambika%20Town%20ship,%20Near%20RPS%20School,%20Mavdi%20Rajkot%20Gujarat%20360004%20India","geoCode":{"lat":"22.2578632","lng":"70.76516769999999"}},{"_id":"5e170c59c27aa15cda0a1eb9","modeOfTransport":"","postCode":"360005","name":"Pavitra Hirenbhai Thummar","std":"Jr.KgB","address":"B-75, Ajanta park, Sadhu vaswani road","__v":"0","splicedAddress":"B-75, Ajanta park, Sadhu vaswani road","newAddress":"B-75,%20Ajanta%20park,%20Sadhu%20vaswani%20road%20Rajkot%20Gujarat%20360005%20India","geoCode":{"lat":"22.2924298","lng":"70.75899509999999"}},{"_id":"5e170c59c27aa15cda0a1eba","modeOfTransport":"","postCode":"360005","name":"Pahal Ashokbhai Savaliya","std":"Jr.KgA","address":"B-C/50, Alap Avanue, Near Pushkardham, University road","__v":"0","splicedAddress":"B-C/50, Alap Avanue, Near Pushkardham, University road","newAddress":"B-C/50,%20Alap%20Avanue,%20Near%20Pushkardham,%20University%20road%20Rajkot%20Gujarat%20360005%20India","geoCode":{"lat":"22.2855654","lng":"70.7557176"}},{"_id":"5e170c59c27aa15cda0a1ebb","modeOfTransport":"","postCode":"360005","name":"Khanak Rohit Kariya","std":"Jr.KgB","address":"Palmcity Appt., A-501, Sadhuvaswani road","__v":"0","splicedAddress":"Palmcity Appt., A-501, Sadhuvaswani road","newAddress":"Palmcity%20Appt.,%20A-501,%20Sadhuvaswani%20road%20Rajkot%20Gujarat%20360005%20India","geoCode":{"lat":"22.2956921","lng":"70.7534058"}},{"_id":"5e170c59c27aa15cda0a1ebc","modeOfTransport":"","postCode":"360005","name":"Anaya Sandip Koradia","std":"Jr.KgA","address":"Siddharth Golf Appt., Near Geetanjali College, Block no. 401","__v":"0","splicedAddress":"Siddharth Golf Appt., Near Geetanjali College, Block no. 401","newAddress":"Siddharth%20Golf%20Appt.,%20Near%20Geetanjali%20College,%20Block%20no.%20401%20Rajkot%20Gujarat%20360005%20India","geoCode":{"lat":"22.2927728","lng":"70.7578158"}},{"_id":"5e170c59c27aa15cda0a1ebd","modeOfTransport":"","postCode":" ","name":"Aditi Dharmeshbhai Raiyani","std":"Jr.KgB","address":"1 Geetajali park, Street 6, Gayatri main road, B/h. Anand nagar colony","__v":"0","splicedAddress":"1 Geetajali park, Street 6, Gayatri main road, B/h. Anand nagar colony","newAddress":"1%20Geetajali%20park,%20Street%206,%20Gayatri%20main%20road,%20B/h.%20Anand%20nagar%20colony%20Rajkot%20Gujarat%20 %20India","geoCode":{"lat":"22.2758949","lng":"70.80385040000002"}},{"_id":"5e170c59c27aa15cda0a1ebe","modeOfTransport":"","postCode":"360007","name":"Myraa Manishbhai Tejani","std":"Jr.KgC","address":"Dream city, B-C1/201, Raiya hill, B/h. Alap green city","__v":"0","splicedAddress":"Dream city, B-C1/201, Raiya hill, B/h. Alap green city","newAddress":"Dream%20city,%20B-C1/201,%20Raiya%20hill,%20B/h.%20Alap%20green%20city%20Rajkot%20Gujarat%20360007%20India","geoCode":{"lat":"22.3107218","lng":"70.7562963"}},{"_id":"5e170c59c27aa15cda0a1ebf","modeOfTransport":"","postCode":"360005","name":"Maitri Devang Trivedi","std":"Jr.KgA","address":"\"Jeevan Amrit\", ashopalav park, Street no 2, Opp. Palm city Near Patidar chowk, Sadhu vaswani road","__v":"0","splicedAddress":"\"Jeevan Amrit\", ashopalav park, Street no 2, Opp. Palm city Near Patidar chowk, Sadhu vaswani road","newAddress":"\"Jeevan%20Amrit\",%20ashopalav%20park,%20Street%20no%202,%20Opp.%20Palm%20city%20Near%20Patidar%20chowk,%20Sadhu%20vaswani%20road%20Rajkot%20Gujarat%20360005%20India","geoCode":{"lat":"22.294215","lng":"70.754809"}},{"_id":"5e170c59c27aa15cda0a1ec0","modeOfTransport":"","postCode":"360005","name":"Pari Vishalkumar Ponkiya","std":"Jr.KgB","address":"\"Gagan Appt.\", 7 floor, 68 Balmukud plot, 1 saurashtra kala kendra, Nirmala road","__v":"0","splicedAddress":"\"Gagan Appt.\", 7 floor, 68 Balmukud plot, 1 saurashtra kala kendra, Nirmala road","newAddress":"\"Gagan%20Appt.\",%207%20floor,%2068%20Balmukud%20plot,%201%20saurashtra%20kala%20kendra,%20Nirmala%20road%20Rajkot%20Gujarat%20360005%20India","geoCode":{"lat":"22.2961991","lng":"70.77661309999999"}},{"_id":"5e170c59c27aa15cda0a1ec1","modeOfTransport":"","postCode":"360004","name":"Riree Avanish Patel","std":"Jr.KgB","address":"\"Saubhagya\", Vaishali nagar, street no 6, Opp. Amrapali parti plot","__v":"0","splicedAddress":"\"Saubhagya\", Vaishali nagar, street no 6, Opp. Amrapali parti plot","newAddress":"\"Saubhagya\",%20Vaishali%20nagar,%20street%20no%206,%20Opp.%20Amrapali%20parti%20plot%20Rajkot%20Gujarat%20360004%20India","geoCode":{"lat":"22.2974834","lng":"70.7823446"}},{"_id":"5e170c59c27aa15cda0a1ec2","modeOfTransport":"","postCode":"360005","name":"Drishi Dharmeshbhai Patel","std":"Jr.KgA","address":"\"Bahuchar Krupa\", 4-Gunatit nagar, B/h. Raiya telephone exchange, 150 feet ring road","__v":"0","splicedAddress":"\"Bahuchar Krupa\", 4-Gunatit nagar, B/h. Raiya telephone exchange, 150 feet ring road","newAddress":"\"Bahuchar%20Krupa\",%204-Gunatit%20nagar,%20B/h.%20Raiya%20telephone%20exchange,%20150%20feet%20ring%20road%20Rajkot%20Gujarat%20360005%20India","geoCode":{"lat":"22.265721","lng":"70.79511"}},{"_id":"5e170c59c27aa15cda0a1ec3","modeOfTransport":"","postCode":"360005","name":"Kavyshreeba Kuldeepsinh Jadeja","std":"Sr.KgA","address":"\"Vasant Smruti\", B-23, Parijat residency, Sadhu vaswani road","__v":"0","splicedAddress":"\"Vasant Smruti\", B-23, Parijat residency, Sadhu vaswani road","newAddress":"\"Vasant%20Smruti\",%20B-23,%20Parijat%20residency,%20Sadhu%20vaswani%20road%20Rajkot%20Gujarat%20360005%20India","geoCode":{"lat":"22.2939632","lng":"70.7589004"}},{"_id":"5e170c59c27aa15cda0a1ec4","modeOfTransport":"","postCode":"360001","name":"Nandani Bhavinbhai Tilala","std":"Sr.KgB","address":"\"Dharmesh\", 4-Naval nagar, Mavdi main road","__v":"0","splicedAddress":"\"Dharmesh\", 4-Naval nagar, Mavdi main road","newAddress":"\"Dharmesh\",%204-Naval%20nagar,%20Mavdi%20main%20road%20Rajkot%20Gujarat%20360001%20India","geoCode":{"lat":"22.2690645","lng":"70.7886454"}},{"_id":"5e170c59c27aa15cda0a1ec5","modeOfTransport":"","postCode":"360005","name":"Angel Kalpeshbhai Kanani","std":"Sr.KgB","address":"Shyamal Vatika, Block no. 501(H)","__v":"0","splicedAddress":"Shyamal Vatika, Block no. 501(H)","newAddress":"Shyamal%20Vatika,%20Block%20no.%20501(H)%20Rajkot%20Gujarat%20360005%20India","geoCode":{"lat":"22.2951494","lng":"70.7463071"}},{"_id":"5e170c59c27aa15cda0a1ec6","modeOfTransport":"","postCode":"360022","name":"Dhruvi Chiragbhai Parsana","std":"Sr.KgD","address":"\"Atulya\", Madhav redidancy-A, Street 2, B-12, Kothariya main road, Near Swati park","__v":"0","splicedAddress":"\"Atulya\", Madhav redidancy-A, Street 2, B-12, Kothariya main road, Near Swati park","newAddress":"\"Atulya\",%20Madhav%20redidancy-A,%20Street%202,%20B-12,%20Kothariya%20main%20road,%20Near%20Swati%20park%20Rajkot%20Gujarat%20360022%20India","geoCode":{"lat":"22.255948","lng":"70.8169059"}},{"_id":"5e170c59c27aa15cda0a1ec7","modeOfTransport":"","postCode":"360005","name":"Diya  Dipeshbhai Dave","std":"Sr.KgC","address":"C-402, Shyamal Veritix, Sadhu Vaswani road, Off., University road","__v":"0","splicedAddress":"C-402, Shyamal Veritix, Sadhu Vaswani road, Off., University road","newAddress":"C-402,%20Shyamal%20Veritix,%20Sadhu%20Vaswani%20road,%20Off.,%20University%20road%20Rajkot%20Gujarat%20360005%20India","geoCode":{"lat":"22.293151","lng":"70.75932999999999"}},{"_id":"5e170c59c27aa15cda0a1ec8","modeOfTransport":"","postCode":"360005","name":"Hetvi Vasubhai Papaniya","std":"Sr.KgD","address":"B-12/17, Govt. C- 108 Quarter, Aakashwani chowk","__v":"0","splicedAddress":"B-12/17, Govt. C- 108 Quarter, Aakashwani chowk","newAddress":"B-12/17,%20Govt.%20C-%20108%20Quarter,%20Aakashwani%20chowk%20Rajkot%20Gujarat%20360005%20India","geoCode":{"lat":"22.275715","lng":"70.77762"}},{"_id":"5e170c59c27aa15cda0a1ec9","modeOfTransport":"","postCode":"360004","name":"Dwija Rinalbhai Vekariya","std":"Jr.KgB","address":"2 Sardar nagar, Mavdi plot, Near Sardar nagar Community hall","__v":"0","splicedAddress":"2 Sardar nagar, Mavdi plot, Near Sardar nagar Community hall","newAddress":"2%20Sardar%20nagar,%20Mavdi%20plot,%20Near%20Sardar%20nagar%20Community%20hall%20Rajkot%20Gujarat%20360004%20India","geoCode":{"lat":"22.269742","lng":"70.7856065"}},{"_id":"5e170c59c27aa15cda0a1eca","modeOfTransport":"","postCode":"360007","name":"Devyani Bhaveshbhai Visodiya","std":"Sr.KgA","address":"Oscar Green city block no 232 opp tulsi market raiya road","__v":"0","splicedAddress":"Oscar Green city block no 232 opp tulsi market raiya road","newAddress":"Oscar%20Green%20city%20block%20no%20232%20opp%20tulsi%20market%20raiya%20road%20Rajkot%20Gujarat%20360007%20India","geoCode":{"lat":"22.3003615","lng":"70.7559164"}},{"_id":"5e170c59c27aa15cda0a1ecb","modeOfTransport":"","postCode":"360007","name":"Rahi Harshadbhai Kavathiya","std":"Sr.KgC","address":"D 503 sopan habitata near nand village sadhuvaswani road ","__v":"0","splicedAddress":"D 503 sopan habitata near nand village sadhuvaswani road ","newAddress":"D%20503%20sopan%20habitata%20near%20nand%20village%20sadhuvaswani%20road%20%20Rajkot%20Gujarat%20360007%20India","geoCode":{"lat":"22.2956634","lng":"70.7516006"}},{"_id":"5e170c59c27aa15cda0a1ecc","modeOfTransport":"","postCode":"360002","name":"Khushi Pareshbhai Gadhiya","std":"Jr.KgA","address":"4 Ram park kotahriya road","__v":"0","splicedAddress":"4 Ram park kotahriya road","newAddress":"4%20Ram%20park%20kotahriya%20road%20Rajkot%20Gujarat%20360002%20India","geoCode":{"lat":"22.232307","lng":"70.814615"}},{"_id":"5e170c59c27aa15cda0a1ecd","modeOfTransport":"","postCode":"360005","name":"Aarya Amitsingh Bhadauria","std":"NurA","address":"\"Utkarsh\", 2-Nilkanth nagar, Panchayat Chowk","__v":"0","splicedAddress":"\"Utkarsh\", 2-Nilkanth nagar, Panchayat Chowk","newAddress":"\"Utkarsh\",%202-Nilkanth%20nagar,%20Panchayat%20Chowk%20Rajkot%20Gujarat%20360005%20India","geoCode":{"lat":"22.2899551","lng":"70.7658246"}},{"_id":"5e170c59c27aa15cda0a1ece","modeOfTransport":"Parent","postCode":"360006","name":"Jeeya Sunilbhai Sardhara","std":"NurA","address":"Flat no A 1/4 Sadhuvaswani road Gangotri dairy farm","__v":"0","splicedAddress":"Flat no A 1/4 Sadhuvaswani road Gangotri dairy farm","newAddress":"Flat%20no%20A%201/4%20Sadhuvaswani%20road%20Gangotri%20dairy%20farm%20Rajkot%20Gujarat%20360006%20India","geoCode":{"lat":"22.2995802","lng":"70.7572466"}},{"_id":"5e170c59c27aa15cda0a1ecf","modeOfTransport":"","postCode":"360005","name":"Heeva  Akshay Kaneriya","std":"NurA","address":"103 Swapna shrushti appt jalaram 2 jagdishan marg","__v":"0","splicedAddress":"103 Swapna shrushti appt jalaram 2 jagdishan marg","newAddress":"103%20Swapna%20shrushti%20appt%20jalaram%202%20jagdishan%20marg%20Rajkot%20Gujarat%20360005%20India","geoCode":{"lat":"22.2904875","lng":"70.77519749999999"}},{"_id":"5e170c59c27aa15cda0a1ed0","modeOfTransport":"","postCode":"360005","name":"Foram Pareshbhai Javiya","std":"NurA","address":"Siddivinayak appartment seccond floor 202 sadhuvaswani road ","__v":"0","splicedAddress":"Siddivinayak appartment seccond floor 202 sadhuvaswani road ","newAddress":"Siddivinayak%20appartment%20seccond%20floor%20202%20sadhuvaswani%20road%20%20Rajkot%20Gujarat%20360005%20India","geoCode":{"lat":"22.2901528","lng":"70.76104409999999"}},{"_id":"5e170c59c27aa15cda0a1ed1","modeOfTransport":"","postCode":"360007","name":"Dhyara Bhavesh Dobariya","std":"Jr.KgA","address":"Hetbhav 2 Santosh Park Near Oscar Residency behind Meera Nagar Raiya road","__v":"0","splicedAddress":"Hetbhav 2 Santosh Park Near Oscar Residency behind Meera Nagar Raiya road","newAddress":"Hetbhav%202%20Santosh%20Park%20Near%20Oscar%20Residency%20behind%20Meera%20Nagar%20Raiya%20road%20Rajkot%20Gujarat%20360007%20India","geoCode":{"lat":"22.3074922","lng":"70.7632"}},{"_id":"5e170c59c27aa15cda0a1ed2","modeOfTransport":"","postCode":"360005","name":"Dwity Jayeshbhai Panara","std":"Jr.KgC","address":"Sayam Nilkant nagar main road opp kanya Chhatralay street university road ","__v":"0","splicedAddress":"Sayam Nilkant nagar main road opp kanya Chhatralay street university road ","newAddress":"Sayam%20Nilkant%20nagar%20main%20road%20opp%20kanya%20Chhatralay%20street%20university%20road%20%20Rajkot%20Gujarat%20360005%20India","geoCode":{"lat":"22.2876452","lng":"70.7622956"}},{"_id":"5e170c59c27aa15cda0a1ed3","modeOfTransport":"","postCode":"360005","name":"Khushi Vipulbhai  Raval","std":"Jr.KgA","address":"Yogi bhuvan diamond bunglows jalaraam plot university road ","__v":"0","splicedAddress":"Yogi bhuvan diamond bunglows jalaraam plot university road ","newAddress":"Yogi%20bhuvan%20diamond%20bunglows%20jalaraam%20plot%20university%20road%20%20Rajkot%20Gujarat%20360005%20India","geoCode":{"lat":"22.2963921","lng":"70.7946093"}},{"_id":"5e170c59c27aa15cda0a1ed4","modeOfTransport":"","postCode":"360005","name":"Aarohi Hirenbhai Popat","std":"NurA","address":"A 904 Behind Aalap green city   dream ccity raiya dhar","__v":"0","splicedAddress":"A 904 Behind Aalap green city   dream ccity raiya dhar","newAddress":"A%20904%20Behind%20Aalap%20green%20city%20%20%20dream%20ccity%20raiya%20dhar%20Rajkot%20Gujarat%20360005%20India","geoCode":{"lat":"22.3107218","lng":"70.7562963"}},{"_id":"5e170c59c27aa15cda0a1ed5","modeOfTransport":"","postCode":"360001","name":"Mishka Digvijaysinh Vaghela","std":"Sr.KgB","address":"Block no 8 We 88 bunglows near SRP Camp Vardhman Nagar near ring road","__v":"0","splicedAddress":"Block no 8 We 88 bunglows near SRP Camp Vardhman Nagar near ring road","newAddress":"Block%20no%208%20We%2088%20bunglows%20near%20SRP%20Camp%20Vardhman%20Nagar%20near%20ring%20road%20Rajkot%20Gujarat%20360001%20India","geoCode":{"lat":"22.294709","lng":"70.76987079999999"}},{"_id":"5e170c59c27aa15cda0a1ed6","modeOfTransport":"","postCode":"360005","name":"Kunj  Vishal Nathwani","std":"Sr.KgC","address":"Maa Kailash dhara park street no 2 behind alapgreen city raiya road ","__v":"0","splicedAddress":"Maa Kailash dhara park street no 2 behind alapgreen city raiya road ","newAddress":"Maa%20Kailash%20dhara%20park%20street%20no%202%20behind%20alapgreen%20city%20raiya%20road%20%20Rajkot%20Gujarat%20360005%20India","geoCode":{"lat":"22.3059911","lng":"70.7648188"}},{"_id":"5e170e5cc5de2a5ee2e75354","modeOfTransport":"Van","postCode":"360005","name":"Amana Mahmadfaruk Ajab","std":"9A","address":"Qtr No152 G.H.B Upvan, Kankot Road, Opp Isckon Temple, Off Kalawad Road","__v":"0","splicedAddress":"Qtr No152 G.H.B Upvan, Kankot Road, Opp Isckon Temple, Off Kalawad Road","newAddress":"Qtr%20No152%20G.H.B%20Upvan,%20Kankot%20Road,%20Opp%20Isckon%20Temple,%20Off%20Kalawad%20Road%20Rajkot%20Gujarat%20360005%20India","geoCode":{"lat":"22.2700802","lng":"70.7336061"}},{"_id":"5e170e5cc5de2a5ee2e75355","modeOfTransport":"Van","postCode":"360005","name":"Visha Atulbhai Javia","std":"9A","address":"2 Keshav Complex, Nilkanthnagar Main Road, Opp Patel Kanya Chhatralaya,  Panchyat chowk University Road ","__v":"0","splicedAddress":"2 Keshav Complex, Nilkanthnagar Main Road, Opp Patel Kanya Chhatralaya,  Panchyat chowk University Road ","newAddress":"2%20Keshav%20Complex,%20Nilkanthnagar%20Main%20Road,%20Opp%20Patel%20Kanya%20Chhatralaya,%20%20Panchyat%20chowk%20University%20Road%20%20Rajkot%20Gujarat%20360005%20India","geoCode":{"lat":"22.289814","lng":"70.76643"}},{"_id":"5e170e5cc5de2a5ee2e75356","modeOfTransport":"Van","postCode":"360005","name":"Khushi Hemanshu Lodhiya","std":"9A","address":"C1103 Vasant Marvel, Vimal Nagar Main Road, Near Saurashtra University Gate No-2","__v":"0","splicedAddress":"C1103 Vasant Marvel, Vimal Nagar Main Road, Near Saurashtra University Gate No-2","newAddress":"C1103%20Vasant%20Marvel,%20Vimal%20Nagar%20Main%20Road,%20Near%20Saurashtra%20University%20Gate%20No-2%20Rajkot%20Gujarat%20360005%20India","geoCode":{"lat":"22.2812458","lng":"70.75157779999999"}},{"_id":"5e170e5cc5de2a5ee2e75357","modeOfTransport":"Parents","postCode":"360002","name":"Akshada Nikesh Shah","std":"9A","address":"\"Navkar\" Plot No-160, Ruda Nagar-1, Vrundavan Society Main Road, Kalawad Road","__v":"0","splicedAddress":"\"Navkar\" Plot No-160, Ruda Nagar-1, Vrundavan Society Main Road, Kalawad Road","newAddress":"\"Navkar\"%20Plot%20No-160,%20Ruda%20Nagar-1,%20Vrundavan%20Society%20Main%20Road,%20Kalawad%20Road%20Rajkot%20Gujarat%20360002%20India","geoCode":{"lat":"22.312935","lng":"70.825772"}},{"_id":"5e170e5cc5de2a5ee2e75358","modeOfTransport":"Van","postCode":"360005","name":"Srushti Rajubhai Dangar","std":"10A","geoCode":{"lat":"22.3169071","lng":"70.7834557"},"address":"\"Sagar\" Bhomeshwar Society Main Road, B/H Press Colony, Jamnagar Road","__v":"0","splicedAddress":"\"Sagar\" Bhomeshwar Society Main Road, B/H Press Colony, Jamnagar Road","newAddress":"\"Sagar\"%20Bhomeshwar%20Society%20Main%20Road,%20B/H%20Press%20Colony,%20Jamnagar%20Road%20Rajkot%20Gujarat%20360005%20India"},{"_id":"5e170e5cc5de2a5ee2e75359","modeOfTransport":"Van","postCode":"360005","name":"Simran Rafikbhai Jivani","std":"10A","address":"B-206 Gulshan Park-1, Opp-Vima Hospital, Dudh Sagar Road ","__v":"0","splicedAddress":"B-206 Gulshan Park-1, Opp-Vima Hospital, Dudh Sagar Road ","newAddress":"B-206%20Gulshan%20Park-1,%20Opp-Vima%20Hospital,%20Dudh%20Sagar%20Road%20%20Rajkot%20Gujarat%20360005%20India","geoCode":{"lat":"22.2927825","lng":"70.8296963"}},{"_id":"5e170e5cc5de2a5ee2e7535a","modeOfTransport":"Van","postCode":"360005","name":"Mahek Amitbhai Parikh","std":"10A","address":"71/101 Race Course Park, Near Airport Road","__v":"0","splicedAddress":"71/101 Race Course Park, Near Airport Road","newAddress":"71/101%20Race%20Course%20Park,%20Near%20Airport%20Road%20Rajkot%20Gujarat%20360005%20India","geoCode":{"lat":"22.3059729","lng":"70.7904813"}},{"_id":"5e170e5cc5de2a5ee2e7535b","modeOfTransport":"Parents","postCode":"360001","name":"Prisha Bhaveshbhai Kalola","std":"8A","address":"\"Devalay\" B-201, Jalaram-3, Nr. Michi's Restaurent, Indira Circle, University Road","__v":"0","splicedAddress":"\"Devalay\" B-201, Jalaram-3, Nr. Michi's Restaurent, Indira Circle, University Road","newAddress":"\"Devalay\"%20B-201,%20Jalaram-3,%20Nr.%20Michi's%20Restaurent,%20Indira%20Circle,%20University%20Road%20Rajkot%20Gujarat%20360001%20India","geoCode":{"lat":"22.2885477","lng":"70.7697184"}},{"_id":"5e170e5cc5de2a5ee2e7535c","modeOfTransport":"Van","postCode":"360002","name":"Yesha Amitkumar Kubavat","std":"9A","address":"Amar Nivas 14/4 Bhaktinagar, Opp. Avantibhai Lodhi Bhavan","__v":"0","splicedAddress":"Amar Nivas 14/4 Bhaktinagar, Opp. Avantibhai Lodhi Bhavan","newAddress":"Amar%20Nivas%2014/4%20Bhaktinagar,%20Opp.%20Avantibhai%20Lodhi%20Bhavan%20Rajkot%20Gujarat%20360002%20India","geoCode":{"lat":"22.2667605","lng":"70.8090222"}},{"_id":"5e170e5cc5de2a5ee2e7535d","modeOfTransport":"Van","postCode":"360005","name":"Jahnvi Bhavesh Manwar","std":"8A","address":"904- Raj Palace, Sadhu Vasvani Road","__v":"0","splicedAddress":"904- Raj Palace, Sadhu Vasvani Road","newAddress":"904-%20Raj%20Palace,%20Sadhu%20Vasvani%20Road%20Rajkot%20Gujarat%20360005%20India","geoCode":{"lat":"22.294515","lng":"70.75901"}},{"_id":"5e170e5cc5de2a5ee2e7535e","modeOfTransport":"Van","postCode":"360005","name":"Hima Nileshbhai Zalavadia","std":"8A","address":"131-132 Nand Vihar Opp. Dhanajay Marble, Beside Sun City, Sadhu Vaswani Road","__v":"0","splicedAddress":"131-132 Nand Vihar Opp. Dhanajay Marble, Beside Sun City, Sadhu Vaswani Road","newAddress":"131-132%20Nand%20Vihar%20Opp.%20Dhanajay%20Marble,%20Beside%20Sun%20City,%20Sadhu%20Vaswani%20Road%20Rajkot%20Gujarat%20360005%20India","geoCode":{"lat":"22.2980366","lng":"70.7585697"}},{"_id":"5e170e5cc5de2a5ee2e7535f","modeOfTransport":"Van","postCode":"360002","name":"Pal Rohit Tilva","std":"9A","address":" A-902, Havlok Tower,Near Pradhyuman Park Green city club , Nana Mava Main Road","__v":"0","splicedAddress":" A-902, Havlok Tower,Near Pradhyuman Park Green city club , Nana Mava Main Road","newAddress":"%20A-902,%20Havlok%20Tower,Near%20Pradhyuman%20Park%20Green%20city%20club%20,%20Nana%20Mava%20Main%20Road%20Rajkot%20Gujarat%20360002%20India","geoCode":{"lat":"22.2762979","lng":"70.7722807"}},{"_id":"5e170e5cc5de2a5ee2e75360","modeOfTransport":"Van","postCode":"360001","name":"Pooja Harish Ravat","std":"9A","address":"\"Yogeshvar Krupa\" Kailash Park  Main Road, Opp. Konark Flat, Raiya Road","__v":"0","splicedAddress":"\"Yogeshvar Krupa\" Kailash Park  Main Road, Opp. Konark Flat, Raiya Road","newAddress":"\"Yogeshvar%20Krupa\"%20Kailash%20Park%20%20Main%20Road,%20Opp.%20Konark%20Flat,%20Raiya%20Road%20Rajkot%20Gujarat%20360001%20India","geoCode":{"lat":"22.304652","lng":"70.75437099999999"}},{"_id":"5e170e5cc5de2a5ee2e75361","modeOfTransport":"Van","postCode":"360002","name":"Devanshi Paresh Shah","std":"10A","address":"\"Gomti Krupa\" 2-New College Wadi, Opp. G.T.Sheth School B/H Panjab Honda, Kalawad Roa","__v":"0","splicedAddress":"\"Gomti Krupa\" 2-New College Wadi, Opp. G.T.Sheth School B/H Panjab Honda, Kalawad Roa","newAddress":"\"Gomti%20Krupa\"%202-New%20College%20Wadi,%20Opp.%20G.T.Sheth%20School%20B/H%20Panjab%20Honda,%20Kalawad%20Roa%20Rajkot%20Gujarat%20360002%20India","geoCode":{"lat":"22.2854653","lng":"70.7711829"}},{"_id":"5e170e5cc5de2a5ee2e75362","modeOfTransport":"Van","postCode":"360005","name":"Virali Jitendrabhai Viradia","std":"10A","address":"SHREE KHODAL Sardar Nagar Poonam Society Street No 2","__v":"0","splicedAddress":"SHREE KHODAL Sardar Nagar Poonam Society Street No 2","newAddress":"SHREE%20KHODAL%20Sardar%20Nagar%20Poonam%20Society%20Street%20No%202%20Rajkot%20Gujarat%20360005%20India","geoCode":{"lat":"22.2686509","lng":"70.782055"}},{"_id":"5e170e5cc5de2a5ee2e75363","modeOfTransport":"Parents","postCode":"360005","name":"Gopi Manishbhai Gadara","std":"8A","address":"401 Angan Apartment, Vimal Nagar, B/H Alap Avenue, University Road","__v":"0","splicedAddress":"401 Angan Apartment, Vimal Nagar, B/H Alap Avenue, University Road","newAddress":"401%20Angan%20Apartment,%20Vimal%20Nagar,%20B/H%20Alap%20Avenue,%20University%20Road%20Rajkot%20Gujarat%20360005%20India","geoCode":{"lat":"22.283151","lng":"70.7497132"}},{"_id":"5e170e5cc5de2a5ee2e75364","modeOfTransport":"Parents","postCode":"360005","name":"Rutvi Maheshbhai Boda","std":"9A","address":"Satelite Park Block No-14, Near Patidar Chowk, Sadhu Vasvani Road","__v":"0","splicedAddress":"Satelite Park Block No-14, Near Patidar Chowk, Sadhu Vasvani Road","newAddress":"Satelite%20Park%20Block%20No-14,%20Near%20Patidar%20Chowk,%20Sadhu%20Vasvani%20Road%20Rajkot%20Gujarat%20360005%20India","geoCode":{"lat":"22.294215","lng":"70.754809"}}]},{"key":[{"_id":"5e170e5cc5de2a5ee2e75365","modeOfTransport":"Van","postCode":"360002","name":"Hency Bhaveshbhai Dudhatra","std":"7A","address":"\"Matru Krupa\"3-Poonam Society, Nr. Patel Boarding, 150 Ft Ring Road","__v":"0","splicedAddress":"\"Matru Krupa\"3-Poonam Society, Nr. Patel Boarding, 150 Ft Ring Road","newAddress":"\"Matru%20Krupa\"3-Poonam%20Society,%20Nr.%20Patel%20Boarding,%20150%20Ft%20Ring%20Road%20Rajkot%20Gujarat%20360002%20India","geoCode":{"lat":"22.2901051","lng":"70.7709785"}},{"_id":"5e170e5cc5de2a5ee2e75366","modeOfTransport":"Van","postCode":"360005","name":"Yashvi Ajaybhai Ramani","std":"7A","address":"\"Ajay\", 1 Gulab Nagar, 9 Master Society Corner, 80 Ft Road","__v":"0","splicedAddress":"\"Ajay\", 1 Gulab Nagar, 9 Master Society Corner, 80 Ft Road","newAddress":"\"Ajay\",%201%20Gulab%20Nagar,%209%20Master%20Society%20Corner,%2080%20Ft%20Road%20Rajkot%20Gujarat%20360005%20India","geoCode":{"lat":"22.2791451","lng":"70.806697"}},{"_id":"5e170e5cc5de2a5ee2e75367","modeOfTransport":"Van","postCode":"360005","name":"Bhavya Nikeshkumar Kalaria","std":"9A","address":"A 503 Rose The Garden city Sadhuvaswani Road University Road","__v":"0","splicedAddress":"A 503 Rose The Garden city Sadhuvaswani Road University Road","newAddress":"A%20503%20Rose%20The%20Garden%20city%20Sadhuvaswani%20Road%20University%20Road%20Rajkot%20Gujarat%20360005%20India","geoCode":{"lat":"22.2907741","lng":"70.76194439999999"}},{"_id":"5e170e5cc5de2a5ee2e75368","modeOfTransport":"Van","postCode":"360002","name":"Mansi Pankajbhai Dudhatra","std":"9A","address":"Poonam SocietyStreet No 3, Nr. Patel Boarding, 150 Ft Ring Road","__v":"0","splicedAddress":"Poonam SocietyStreet No 3, Nr. Patel Boarding, 150 Ft Ring Road","newAddress":"Poonam%20SocietyStreet%20No%203,%20Nr.%20Patel%20Boarding,%20150%20Ft%20Ring%20Road%20Rajkot%20Gujarat%20360002%20India","geoCode":{"lat":"22.270079","lng":"70.7817199"}},{"_id":"5e170e5cc5de2a5ee2e75369","modeOfTransport":"Van","postCode":"360001","name":"Sanvi Paragbhai Vaghasiya","std":"9A","address":"B 7 Vijay Appt, New Jagnath 22/23 Corner, Mahakali Mandir Road","__v":"0","splicedAddress":"B 7 Vijay Appt, New Jagnath 22/23 Corner, Mahakali Mandir Road","newAddress":"B%207%20Vijay%20Appt,%20New%20Jagnath%2022/23%20Corner,%20Mahakali%20Mandir%20Road%20Rajkot%20Gujarat%20360001%20India","geoCode":{"lat":"22.2943606","lng":"70.787814"}},{"_id":"5e170e5cc5de2a5ee2e7536a","modeOfTransport":"Van","postCode":"360002","name":"Janki Yogeshbhai Karkar","std":"10A","address":"\"Vinayak\", B/H Aalap Avenue, Vimal Nagar Main Road","__v":"0","splicedAddress":"\"Vinayak\", B/H Aalap Avenue, Vimal Nagar Main Road","newAddress":"\"Vinayak\",%20B/H%20Aalap%20Avenue,%20Vimal%20Nagar%20Main%20Road%20Rajkot%20Gujarat%20360002%20India","geoCode":{"lat":"22.282227","lng":"70.75397389999999"}},{"_id":"5e170e5cc5de2a5ee2e7536b","modeOfTransport":"Van","postCode":"360005","name":"Arajavi Harshadbhai Kakadiya","std":"7B","geoCode":{"lat":"22.2928973","lng":"70.7805881"},"address":"Parishram Chitrakut Dham Society, Block No-84, Ioc Qut, Kalawad Road","__v":"0","splicedAddress":"Parishram Chitrakut Dham Society, Block No-84, Ioc Qut, Kalawad Road","newAddress":"Parishram%20Chitrakut%20Dham%20Society,%20Block%20No-84,%20Ioc%20Qut,%20Kalawad%20Road%20Rajkot%20Gujarat%20360005%20India"},{"_id":"5e170e5cc5de2a5ee2e7536c","modeOfTransport":"Van","postCode":"360002","name":"Diya Piyushbhai Sheth","std":"7A","address":"Om jai AMBE mahakam duplex block No 30 yash comlpex gandhigram 150 feet ring road.","__v":"0","splicedAddress":"Om jai AMBE mahakam duplex block No 30 yash comlpex gandhigram 150 feet ring road.","newAddress":"Om%20jai%20AMBE%20mahakam%20duplex%20block%20No%2030%20yash%20comlpex%20gandhigram%20150%20feet%20ring%20road.%20Rajkot%20Gujarat%20360002%20India","geoCode":{"lat":"22.2795079","lng":"70.7790998"}},{"_id":"5e170e5cc5de2a5ee2e7536d","modeOfTransport":"Van","postCode":"360002","name":"Elisha Shaileshbhai Vadaliya","std":"7B","address":"Sarita Vihar Society, Block No-8, Nr AG Society, Kalawad Road","__v":"0","splicedAddress":"Sarita Vihar Society, Block No-8, Nr AG Society, Kalawad Road","newAddress":"Sarita%20Vihar%20Society,%20Block%20No-8,%20Nr%20AG%20Society,%20Kalawad%20Road%20Rajkot%20Gujarat%20360002%20India","geoCode":{"lat":"22.2778931","lng":"70.7529938"}},{"_id":"5e170e5cc5de2a5ee2e7536e","modeOfTransport":"Van","postCode":"360002","name":"Harleen Bhavin Raval","std":"7A","address":"Aalap Green City A-97 Raiya Road","__v":"0","splicedAddress":"Aalap Green City A-97 Raiya Road","newAddress":"Aalap%20Green%20City%20A-97%20Raiya%20Road%20Rajkot%20Gujarat%20360002%20India","geoCode":{"lat":"22.3013476","lng":"70.7572448"}},{"_id":"5e170e5cc5de2a5ee2e7536f","modeOfTransport":"Van","postCode":"360005","name":"Nandani Himanshubhai Vadalia","std":"7B","address":"128, Gokuldham Society, Gokuldham Main Road, Krishna Nagar Main Road","__v":"0","splicedAddress":"128, Gokuldham Society, Gokuldham Main Road, Krishna Nagar Main Road","newAddress":"128,%20Gokuldham%20Society,%20Gokuldham%20Main%20Road,%20Krishna%20Nagar%20Main%20Road%20Rajkot%20Gujarat%20360005%20India","geoCode":{"lat":"19.1702821","lng":"72.8698946"}},{"_id":"5e170e5cc5de2a5ee2e75370","modeOfTransport":"Van","postCode":"360005","name":"Vedanti Jayesh Rajvir","std":"7B","address":"Ravi Park, Street-9, Block-90/2 ,Near A G South Kalawad Road","__v":"0","splicedAddress":"Ravi Park, Street-9, Block-90/2 ,Near A G South Kalawad Road","newAddress":"Ravi%20Park,%20Street-9,%20Block-90/2%20,Near%20A%20G%20South%20Kalawad%20Road%20Rajkot%20Gujarat%20360005%20India","geoCode":{"lat":"22.2702101","lng":"70.7414555"}},{"_id":"5e170e5cc5de2a5ee2e75371","modeOfTransport":"Van","postCode":"360005","name":"Shreena Rakeshbhai Donga","std":"7A","address":"Pratham Appt.2, Shiv Aaradhna Soc. Street No. 6, Satya Sai Heart Hospital Road","__v":"0","splicedAddress":"Pratham Appt.2, Shiv Aaradhna Soc. Street No. 6, Satya Sai Heart Hospital Road","newAddress":"Pratham%20Appt.2,%20Shiv%20Aaradhna%20Soc.%20Street%20No.%206,%20Satya%20Sai%20Heart%20Hospital%20Road%20Rajkot%20Gujarat%20360005%20India","geoCode":{"lat":"22.2784156","lng":"70.7695437"}},{"_id":"5e170e5cc5de2a5ee2e75372","modeOfTransport":"Parents","postCode":"360002","name":"Tisha Paragbhai Rughani","std":"7A","address":"\"Alkesh\", Tulsi Park Street No. 2, Nr. Telephone Exchange, Raiya Road.","__v":"0","splicedAddress":"\"Alkesh\", Tulsi Park Street No. 2, Nr. Telephone Exchange, Raiya Road.","newAddress":"\"Alkesh\",%20Tulsi%20Park%20Street%20No.%202,%20Nr.%20Telephone%20Exchange,%20Raiya%20Road.%20Rajkot%20Gujarat%20360002%20India","geoCode":{"lat":"22.3009546","lng":"70.7569805"}},{"_id":"5e170e5cc5de2a5ee2e75373","modeOfTransport":"Van","postCode":"360005","name":"Aachal Hiteshbhai Dudhatra","std":"6B","address":"MATRU KRUPA 3- Poonam Society, Nr. Patel Boarding, 150 Ft Ring Road","__v":"0","splicedAddress":"MATRU KRUPA 3- Poonam Society, Nr. Patel Boarding, 150 Ft Ring Road","newAddress":"MATRU%20KRUPA%203-%20Poonam%20Society,%20Nr.%20Patel%20Boarding,%20150%20Ft%20Ring%20Road%20Rajkot%20Gujarat%20360005%20India","geoCode":{"lat":"22.2901051","lng":"70.7709785"}},{"_id":"5e170e5cc5de2a5ee2e75374","modeOfTransport":"Van","postCode":"360005","name":"Aastha Devendra Trivedi","std":"6A","address":"A-11, Green Avenue, Near Prashil Park, University Road","__v":"0","splicedAddress":"A-11, Green Avenue, Near Prashil Park, University Road","newAddress":"A-11,%20Green%20Avenue,%20Near%20Prashil%20Park,%20University%20Road%20Rajkot%20Gujarat%20360005%20India","geoCode":{"lat":"22.2829948","lng":"70.7452905"}},{"_id":"5e170e5cc5de2a5ee2e75375","modeOfTransport":"Van","postCode":"360005","name":"Bansari Kamleshbhai Amrutiya","std":"6B","address":"Nandanvan Society, Block No 43/6 Nr. Panchayat Nagar, Nr. Sura House, University Road","__v":"0","splicedAddress":"Nandanvan Society, Block No 43/6 Nr. Panchayat Nagar, Nr. Sura House, University Road","newAddress":"Nandanvan%20Society,%20Block%20No%2043/6%20Nr.%20Panchayat%20Nagar,%20Nr.%20Sura%20House,%20University%20Road%20Rajkot%20Gujarat%20360005%20India","geoCode":{"lat":"22.3038803","lng":"70.7666557"}},{"_id":"5e170e5cc5de2a5ee2e75376","modeOfTransport":"Van","postCode":"360002","name":"Bhagvatiba Dharmendrasinh Jadeja","std":"6B","address":"Guru Krupa Plot No 35 Street No 5 Yogi Nagar 150 Feet Ring Road.","__v":"0","splicedAddress":"Guru Krupa Plot No 35 Street No 5 Yogi Nagar 150 Feet Ring Road.","newAddress":"Guru%20Krupa%20Plot%20No%2035%20Street%20No%205%20Yogi%20Nagar%20150%20Feet%20Ring%20Road.%20Rajkot%20Gujarat%20360002%20India","geoCode":{"lat":"22.2873554","lng":"70.7575428"}},{"_id":"5e170e5cc5de2a5ee2e75377","modeOfTransport":"Parents","postCode":"360002","name":"Devshree Samirbhai Goradiya","std":"6A","address":"\"Shree Krushnashray\" 2- Sakhiya Nagar, Airport Road","__v":"0","splicedAddress":"\"Shree Krushnashray\" 2- Sakhiya Nagar, Airport Road","newAddress":"\"Shree%20Krushnashray\"%202-%20Sakhiya%20Nagar,%20Airport%20Road%20Rajkot%20Gujarat%20360002%20India","geoCode":{"lat":"22.3066366","lng":"70.7831738"}},{"_id":"5e170e5cc5de2a5ee2e75378","modeOfTransport":"Van","postCode":"360005","name":"Dhanvi Manishkumar Pansuriya","std":"6B","address":"Surya Park D-9, Nr. Ganga Hall Amin Marg","__v":"0","splicedAddress":"Surya Park D-9, Nr. Ganga Hall Amin Marg","newAddress":"Surya%20Park%20D-9,%20Nr.%20Ganga%20Hall%20Amin%20Marg%20Rajkot%20Gujarat%20360005%20India","geoCode":{"lat":"22.284747","lng":"70.7772849"}},{"_id":"5e170e5cc5de2a5ee2e75379","modeOfTransport":"Van","postCode":"360005","name":"Dixita Udaybhai Vegda","std":"  ","geoCode":{"lat":"22.2975193","lng":"70.7486814"},"address":"Near Mama Saheb Mandir, Jagannathji Krupa, Street -1, Ganesh Park, Raiya Road","__v":"0","splicedAddress":"Near Mama Saheb Mandir, Jagannathji Krupa, Street -1, Ganesh Park, Raiya Road","newAddress":"Near%20Mama%20Saheb%20Mandir,%20Jagannathji%20Krupa,%20Street%20-1,%20Ganesh%20Park,%20Raiya%20Road%20Rajkot%20Gujarat%20360005%20India"},{"_id":"5e170e5cc5de2a5ee2e7537a","modeOfTransport":"Van","postCode":"360005","name":"Drashti Vikaskumar Kalola","std":"6B","address":"B1 552 Nand Gauva Sadhu Vaswani Road.","__v":"0","splicedAddress":"B1 552 Nand Gauva Sadhu Vaswani Road.","newAddress":"B1%20552%20Nand%20Gauva%20Sadhu%20Vaswani%20Road.%20Rajkot%20Gujarat%20360005%20India","geoCode":{"lat":"22.2939632","lng":"70.7589004"}},{"_id":"5e170e5cc5de2a5ee2e7537b","modeOfTransport":"Van","postCode":"360002","name":"Durva Maulik Kagathara","std":"6A","address":"\"Madhav\", Narmada Park-2, Vidyakunj Society Main Road, Near Amin Marg","__v":"0","splicedAddress":"\"Madhav\", Narmada Park-2, Vidyakunj Society Main Road, Near Amin Marg","newAddress":"\"Madhav\",%20Narmada%20Park-2,%20Vidyakunj%20Society%20Main%20Road,%20Near%20Amin%20Marg%20Rajkot%20Gujarat%20360002%20India","geoCode":{"lat":"22.3196515","lng":"70.7793385"}},{"_id":"5e170e5cc5de2a5ee2e7537c","modeOfTransport":"Van","postCode":"360005","name":"Heny Kalpeshbhai Bhuva","std":"6A","address":"702, Rajdhani Appt., Opp. Puskardham, University Road","__v":"0","splicedAddress":"702, Rajdhani Appt., Opp. Puskardham, University Road","newAddress":"702,%20Rajdhani%20Appt.,%20Opp.%20Puskardham,%20University%20Road%20Rajkot%20Gujarat%20360005%20India","geoCode":{"lat":"22.2882107","lng":"70.7715383"}},{"_id":"5e170e5cc5de2a5ee2e7537d","modeOfTransport":"Van","postCode":"360002","name":"Ishita Sureshbhai Rabadiya","std":"6B","address":"\"Shree Yamuna Krupa\"Shree Raj Residency Society, Street No.2, B/H Rajsinagar Party Plot, 150 Feet Ring Road","__v":"0","splicedAddress":"\"Shree Yamuna Krupa\"Shree Raj Residency Society, Street No.2, B/H Rajsinagar Party Plot, 150 Feet Ring Road","newAddress":"\"Shree%20Yamuna%20Krupa\"Shree%20Raj%20Residency%20Society,%20Street%20No.2,%20B/H%20Rajsinagar%20Party%20Plot,%20150%20Feet%20Ring%20Road%20Rajkot%20Gujarat%20360002%20India","geoCode":{"lat":"22.2820473","lng":"70.77554049999999"}},{"_id":"5e170e5cc5de2a5ee2e7537e","modeOfTransport":"Parents","postCode":"360005","name":"Krishaba Dharmendrasinh Vaghela","std":"6A","address":"\"Shree Vagheshwari Krupa\", Vishnu Vihar Society, Nr Ruda-2, Plot No-45, ","__v":"0","splicedAddress":"\"Shree Vagheshwari Krupa\", Vishnu Vihar Society, Nr Ruda-2, Plot No-45, ","newAddress":"\"Shree%20Vagheshwari%20Krupa\",%20Vishnu%20Vihar%20Society,%20Nr%20Ruda-2,%20Plot%20No-45,%20%20Rajkot%20Gujarat%20360005%20India","geoCode":{"lat":"22.2802197","lng":"70.749224"}},{"_id":"5e170e5cc5de2a5ee2e7537f","modeOfTransport":"Van","postCode":"360002","name":"Kriya Manojbhai Sanyja","std":"6A","address":"Utsav Park-2, \"Kriya\", B-79, Sadhuwasvani Road","__v":"0","splicedAddress":"Utsav Park-2, \"Kriya\", B-79, Sadhuwasvani Road","newAddress":"Utsav%20Park-2,%20\"Kriya\",%20B-79,%20Sadhuwasvani%20Road%20Rajkot%20Gujarat%20360002%20India","geoCode":{"lat":"22.290774","lng":"70.760289"}},{"_id":"5e170e5cc5de2a5ee2e75380","modeOfTransport":"Van","postCode":"360002","name":"Maitri Vimalbhai Vasani","std":"6A","address":"B-28 Shastri Nagar (Agmera), Nana Mava Road","__v":"0","splicedAddress":"B-28 Shastri Nagar (Agmera), Nana Mava Road","newAddress":"B-28%20Shastri%20Nagar%20(Agmera),%20Nana%20Mava%20Road%20Rajkot%20Gujarat%20360002%20India","geoCode":{"lat":"22.2715479","lng":"70.7686987"}},{"_id":"5e170e5cc5de2a5ee2e75381","modeOfTransport":"Parents","postCode":"360005","name":"Manushi Tuljashankar Shrimali","std":"6B","address":"B No-201 Prasheel Park Near Saurastra University","__v":"0","splicedAddress":"B No-201 Prasheel Park Near Saurastra University","newAddress":"B%20No-201%20Prasheel%20Park%20Near%20Saurastra%20University%20Rajkot%20Gujarat%20360005%20India","geoCode":{"lat":"22.2908247","lng":"70.7430321"}},{"_id":"5e170e5cc5de2a5ee2e75382","modeOfTransport":"Van","postCode":"360002","name":"Mitalba Pratapsinh Zala","std":"6A","address":"Block No 97/D, 1 \"Gurukrupa\" Gayatri Dham Society, Jamnagar Road","__v":"0","splicedAddress":"Block No 97/D, 1 \"Gurukrupa\" Gayatri Dham Society, Jamnagar Road","newAddress":"Block%20No%2097/D,%201%20\"Gurukrupa\"%20Gayatri%20Dham%20Society,%20Jamnagar%20Road%20Rajkot%20Gujarat%20360002%20India","geoCode":{"lat":"22.3231127","lng":"70.7785746"}},{"_id":"5e170e5cc5de2a5ee2e75383","modeOfTransport":"Van","postCode":"360005","name":"Nehal Ajeet Moodhotiya","std":"6B","address":"A.G.Staff Qauters, 14/107, Univeristy Road","__v":"0","splicedAddress":"A.G.Staff Qauters, 14/107, Univeristy Road","newAddress":"A.G.Staff%20Qauters,%2014/107,%20Univeristy%20Road%20Rajkot%20Gujarat%20360005%20India","geoCode":{"lat":"22.2677496","lng":"70.72581509999999"}},{"_id":"5e170e5cc5de2a5ee2e75384","modeOfTransport":"Van","postCode":"360001","name":"Pratvi Mukeshbhai Hapaliya","std":"6A","address":"\"Shree Vallabh\", Vishvanagar - 6, Mavadi Road","__v":"0","splicedAddress":"\"Shree Vallabh\", Vishvanagar - 6, Mavadi Road","newAddress":"\"Shree%20Vallabh\",%20Vishvanagar%20-%206,%20Mavadi%20Road%20Rajkot%20Gujarat%20360001%20India","geoCode":{"lat":"22.2609192","lng":"70.76542239999999"}},{"_id":"5e170e5cc5de2a5ee2e75385","modeOfTransport":"Van","postCode":"360005","name":"Swara Viren Kalariya","std":"6B","address":"\"Viren\", Balaji Park-12, Nr Dhuleshiya Girl'S Hostel, University Road","__v":"0","splicedAddress":"\"Viren\", Balaji Park-12, Nr Dhuleshiya Girl'S Hostel, University Road","newAddress":"\"Viren\",%20Balaji%20Park-12,%20Nr%20Dhuleshiya%20Girl'S%20Hostel,%20University%20Road%20Rajkot%20Gujarat%20360005%20India","geoCode":{"lat":"22.2887009","lng":"70.7887473"}},{"_id":"5e170e5cc5de2a5ee2e75386","modeOfTransport":"Van","postCode":"360001","name":"Swati Prashant Dave","std":"6B","geoCode":{"lat":"22.2798832","lng":"70.7482781"},"address":"\"Prashant\" Ruda Nagar-2, Plot No-138, Kalawad Road","__v":"0","splicedAddress":"\"Prashant\" Ruda Nagar-2, Plot No-138, Kalawad Road","newAddress":"\"Prashant\"%20Ruda%20Nagar-2,%20Plot%20No-138,%20Kalawad%20Road%20Rajkot%20Gujarat%20360001%20India"},{"_id":"5e170e5cc5de2a5ee2e75387","modeOfTransport":"Van","postCode":"360001","name":"Harshi Hirenbhai Jasani","std":"6B","address":"Silver Avenu Society, St-5, PlotNo-25 Bh/Parimal School","__v":"0","splicedAddress":"Silver Avenu Society, St-5, PlotNo-25 Bh/Parimal School","newAddress":"Silver%20Avenu%20Society,%20St-5,%20PlotNo-25%20Bh/Parimal%20School%20Rajkot%20Gujarat%20360001%20India","geoCode":{"lat":"22.2832734","lng":"70.7686568"}},{"_id":"5e170e5cc5de2a5ee2e75388","modeOfTransport":"Parents","postCode":"360001","name":"Heer Shekharsinh Gadhavi","std":"6A","address":"\"Sonal Krupa \", Block No - 29, Chitrakut Dham,  B/H IOC. Quarters, Kalawad Road","__v":"0","splicedAddress":"\"Sonal Krupa \", Block No - 29, Chitrakut Dham,  B/H IOC. Quarters, Kalawad Road","newAddress":"\"Sonal%20Krupa%20\",%20Block%20No%20-%2029,%20Chitrakut%20Dham,%20%20B/H%20IOC.%20Quarters,%20Kalawad%20Road%20Rajkot%20Gujarat%20360001%20India","geoCode":{"lat":"22.2901236","lng":"70.7781694"}},{"_id":"5e170e5cc5de2a5ee2e75389","modeOfTransport":"Van","postCode":"360005","name":"Krishaba Hirendrasinh Padhiyar","std":"6B","address":"Block No -101 Tirthraj appt 6 Royal park near university road indira circle  .","__v":"0","splicedAddress":"Block No -101 Tirthraj appt 6 Royal park near university road indira circle  .","newAddress":"Block%20No%20-101%20Tirthraj%20appt%206%20Royal%20park%20near%20university%20road%20indira%20circle%20%20.%20Rajkot%20Gujarat%20360005%20India","geoCode":{"lat":"22.2879134","lng":"70.7683958"}},{"_id":"5e170e5cc5de2a5ee2e7538a","modeOfTransport":"Van","postCode":"360002","name":"Mahi Navinbhai Tanna","std":"6B","address":"\"Saligarm\"3-Kailash Wadi, Nr Jam Tower, Juction Road","__v":"0","splicedAddress":"\"Saligarm\"3-Kailash Wadi, Nr Jam Tower, Juction Road","newAddress":"\"Saligarm\"3-Kailash%20Wadi,%20Nr%20Jam%20Tower,%20Juction%20Road%20Rajkot%20Gujarat%20360002%20India","geoCode":{"lat":"22.3065473","lng":"70.7972932"}},{"_id":"5e170e5cc5de2a5ee2e7538b","modeOfTransport":"Van","postCode":"360004","name":"Nandani Rambhai Kacha","std":"6B","address":"Punit Society Main Road Nr, Nilkanth Cinema, Kothariya \"Gopinath\" Gayatri Nagar Main Road, Street No-2, \"Jayshree Sonalma Krupa\"Nr.Bhakti Nagar","__v":"0","splicedAddress":"Punit Society Main Road Nr, Nilkanth Cinema, Kothariya \"Gopinath\" Gayatri Nagar Main Road, Street No-2, \"Jayshree Sonalma Krupa\"Nr.Bhakti Nagar","newAddress":"Punit%20Society%20Main%20Road%20Nr,%20Nilkanth%20Cinema,%20Kothariya%20\"Gopinath\"%20Gayatri%20Nagar%20Main%20Road,%20Street%20No-2,%20\"Jayshree%20Sonalma%20Krupa\"Nr.Bhakti%20Nagar%20Rajkot%20Gujarat%20360004%20India","geoCode":{"lat":"22.272899","lng":"70.80474"}},{"_id":"5e170e5cc5de2a5ee2e7538c","modeOfTransport":"Van","postCode":"360005","name":"Nirja Atulbhai Gajera","std":"6A","geoCode":{"lat":"22.3415201","lng":"70.725628"},"address":"Shreenathji\" Bl No-173, St No-4 Jankpuri Soc, Sadhuvasvani Road","__v":"0","splicedAddress":"Shreenathji\" Bl No-173, St No-4 Jankpuri Soc, Sadhuvasvani Road","newAddress":"Shreenathji\"%20Bl%20No-173,%20St%20No-4%20Jankpuri%20Soc,%20Sadhuvasvani%20Road%20Rajkot%20Gujarat%20360005%20India"},{"_id":"5e170e5cc5de2a5ee2e7538d","modeOfTransport":"Van","postCode":"360004","name":"Palak Hasmukhbhai Raichura","std":"  ","address":"\"Sahaj\", Chetrakutdham St. No. -1, Nr. Akshar Marg,","__v":"0","splicedAddress":"\"Sahaj\", Chetrakutdham St. No. -1, Nr. Akshar Marg,","newAddress":"\"Sahaj\",%20Chetrakutdham%20St.%20No.%20-1,%20Nr.%20Akshar%20Marg,%20Rajkot%20Gujarat%20360004%20India","geoCode":{"lat":"22.2883155","lng":"70.7851549"}},{"_id":"5e170e5cc5de2a5ee2e7538e","modeOfTransport":"Van","postCode":"360005","name":"Sharva Biren Lunagariya","std":"6A","address":"Mangalm Park \"Aarav\" Opp SNK School University Road","__v":"0","splicedAddress":"Mangalm Park \"Aarav\" Opp SNK School University Road","newAddress":"Mangalm%20Park%20\"Aarav\"%20Opp%20SNK%20School%20University%20Road%20Rajkot%20Gujarat%20360005%20India","geoCode":{"lat":"22.2883792","lng":"70.7609581"}},{"_id":"5e170e5cc5de2a5ee2e7538f","modeOfTransport":"Van","postCode":"360005","name":"Zaara Zuberkhan Babi","std":"6B","geoCode":{"lat":"22.3207045","lng":"70.712097"},"address":"Al - Mahfuz', 7- Subhas Nagar, B/H Amrapali Cinema, Haweli Street, Rajya Road","__v":"0","splicedAddress":"Al - Mahfuz', 7- Subhas Nagar, B/H Amrapali Cinema, Haweli Street, Rajya Road","newAddress":"Al%20-%20Mahfuz',%207-%20Subhas%20Nagar,%20B/H%20Amrapali%20Cinema,%20Haweli%20Street,%20Rajya%20Road%20Rajkot%20Gujarat%20360005%20India"},{"_id":"5e170e5cc5de2a5ee2e75390","modeOfTransport":"Parents","postCode":"360005","name":"Chandani Chandreshbhai Soni","std":"7B","address":"J K Park Klptru Appt BNo-301B/Halap Green City, Raiya Road","__v":"0","splicedAddress":"J K Park Klptru Appt BNo-301B/Halap Green City, Raiya Road","newAddress":"J%20K%20Park%20Klptru%20Appt%20BNo-301B/Halap%20Green%20City,%20Raiya%20Road%20Rajkot%20Gujarat%20360005%20India","geoCode":{"lat":"22.3013476","lng":"70.7572448"}},{"_id":"5e170e5cc5de2a5ee2e75391","modeOfTransport":"Van","postCode":"360004","name":"Hetanshi Jiteshbhai Ghodasara","std":"8A","address":"D 304 Shantivan Parishar Ambica Township","__v":"0","splicedAddress":"D 304 Shantivan Parishar Ambica Township","newAddress":"D%20304%20Shantivan%20Parishar%20Ambica%20Township%20Rajkot%20Gujarat%20360004%20India","geoCode":{"lat":"22.257738","lng":"70.760718"}},{"_id":"5e170e5cc5de2a5ee2e75392","modeOfTransport":"Van","postCode":"360004","name":"Pari Rohitbhai Jain","std":"8A","geoCode":{"lat":"22.3211067","lng":"70.7685547"},"address":"Ayodhya Park Gruh Mandir. A -Aring Flat No- 301, 150Ft Ring Rd","__v":"0","splicedAddress":"Ayodhya Park Gruh Mandir. A -Aring Flat No- 301, 150Ft Ring Rd","newAddress":"Ayodhya%20Park%20Gruh%20Mandir.%20A%20-Aring%20Flat%20No-%20301,%20150Ft%20Ring%20Rd%20Rajkot%20Gujarat%20360004%20India"},{"_id":"5e170e5cc5de2a5ee2e75393","modeOfTransport":"Van","postCode":"360005","name":"Keena Manojbhai Kundaliya","std":"8A","address":"Block No-139, Sarita Vihar Society, University Road","__v":"0","splicedAddress":"Block No-139, Sarita Vihar Society, University Road","newAddress":"Block%20No-139,%20Sarita%20Vihar%20Society,%20University%20Road%20Rajkot%20Gujarat%20360005%20India","geoCode":{"lat":"22.2784978","lng":"70.7503934"}},{"_id":"5e170e5cc5de2a5ee2e75394","modeOfTransport":"Van","postCode":"360001","name":"Vinisha Atulbhai Makadia","std":"9A","address":"803-Sun Star Appt. Ghanshyam Nagar -2, B/H Crystal Mall Kalawad Road","__v":"0","splicedAddress":"803-Sun Star Appt. Ghanshyam Nagar -2, B/H Crystal Mall Kalawad Road","newAddress":"803-Sun%20Star%20Appt.%20Ghanshyam%20Nagar%20-2,%20B/H%20Crystal%20Mall%20Kalawad%20Road%20Rajkot%20Gujarat%20360001%20India","geoCode":{"lat":"22.279853","lng":"70.7631061"}},{"_id":"5e170e5cc5de2a5ee2e75395","modeOfTransport":"Van","postCode":"360004","name":"Tanisha Chandreshbhai Kyada","std":"10A","address":"\"Nandavan\" , 1-Geeta Nagar,BhaktiNagar Circle  B/H Gurukul ","__v":"0","splicedAddress":"\"Nandavan\" , 1-Geeta Nagar,BhaktiNagar Circle  B/H Gurukul ","newAddress":"\"Nandavan\"%20,%201-Geeta%20Nagar,BhaktiNagar%20Circle%20%20B/H%20Gurukul%20%20Rajkot%20Gujarat%20360004%20India","geoCode":{"lat":"22.2483492","lng":"70.785021"}},{"_id":"5e170e5cc5de2a5ee2e75396","modeOfTransport":"Van","postCode":"360001","name":"Pari Saket Kalavadia","std":"8A","address":"A 1003 King Heights, Vijya Kunj Society Main Road, Nr.Amin Marg","__v":"0","splicedAddress":"A 1003 King Heights, Vijya Kunj Society Main Road, Nr.Amin Marg","newAddress":"A%201003%20King%20Heights,%20Vijya%20Kunj%20Society%20Main%20Road,%20Nr.Amin%20Marg%20Rajkot%20Gujarat%20360001%20India","geoCode":{"lat":"22.2859733","lng":"70.7815292"}}]},{"key":[{"_id":"5e170e5cc5de2a5ee2e75397","modeOfTransport":"Van","postCode":"360008","name":"Aditi Rajendrabhai Rank","std":"5A","address":"\"Shyam\", Aryanagar Society, Opp Tulsi Pan, Pedak Main Road","__v":"0","splicedAddress":"\"Shyam\", Aryanagar Society, Opp Tulsi Pan, Pedak Main Road","newAddress":"\"Shyam\",%20Aryanagar%20Society,%20Opp%20Tulsi%20Pan,%20Pedak%20Main%20Road%20Rajkot%20Gujarat%20360008%20India","geoCode":{"lat":"22.3044471","lng":"70.82164689999999"}},{"_id":"5e170e5cc5de2a5ee2e75398","modeOfTransport":"Van","postCode":"360001","name":"Devyani Jaydev Gadhvi","std":"5B","address":"\"Ganesh Krupa\" Maheshwari -1, Kothariya Road","__v":"0","splicedAddress":"\"Ganesh Krupa\" Maheshwari -1, Kothariya Road","newAddress":"\"Ganesh%20Krupa\"%20Maheshwari%20-1,%20Kothariya%20Road%20Rajkot%20Gujarat%20360001%20India","geoCode":{"lat":"22.2617999","lng":"70.814722"}},{"_id":"5e170e5cc5de2a5ee2e75399","modeOfTransport":"Van","postCode":"360004","name":"Dharmiben Sureshbhai Thesiya","std":"5A","address":"\"Pranam\", 39/A Sanidhya Bunglows, 150Ft Ring Road ","__v":"0","splicedAddress":"\"Pranam\", 39/A Sanidhya Bunglows, 150Ft Ring Road ","newAddress":"\"Pranam\",%2039/A%20Sanidhya%20Bunglows,%20150Ft%20Ring%20Road%20%20Rajkot%20Gujarat%20360004%20India","geoCode":{"lat":"22.2614644","lng":"70.7869919"}},{"_id":"5e170e5cc5de2a5ee2e7539a","modeOfTransport":"Van","postCode":"360001","name":"Dhrumi Tushar Antala","std":"5A","address":"Block-11, Ghanshyam Nagar West, Behind I.O.C Quarters, Kalawad Road","__v":"0","splicedAddress":"Block-11, Ghanshyam Nagar West, Behind I.O.C Quarters, Kalawad Road","newAddress":"Block-11,%20Ghanshyam%20Nagar%20West,%20Behind%20I.O.C%20Quarters,%20Kalawad%20Road%20Rajkot%20Gujarat%20360001%20India","geoCode":{"lat":"22.2807995","lng":"70.76232689999999"}},{"_id":"5e170e5cc5de2a5ee2e7539b","modeOfTransport":"Van","postCode":"360005","name":"Feny Paresh Javiya","std":"5B","address":"B-202 Siddhivinayak Flat, Sadhu Vasvani Road","__v":"0","splicedAddress":"B-202 Siddhivinayak Flat, Sadhu Vasvani Road","newAddress":"B-202%20Siddhivinayak%20Flat,%20Sadhu%20Vasvani%20Road%20Rajkot%20Gujarat%20360005%20India","geoCode":{"lat":"22.293091","lng":"70.759581"}},{"_id":"5e170e5cc5de2a5ee2e7539c","modeOfTransport":"Van","postCode":"360001","name":"Heer Yatinbhai Bhojani","std":"5A","address":"Sunstar Appt, 301/2, Ghansyam Nagar, B/H Crystal Mall, Kalawad Road","__v":"0","splicedAddress":"Sunstar Appt, 301/2, Ghansyam Nagar, B/H Crystal Mall, Kalawad Road","newAddress":"Sunstar%20Appt,%20301/2,%20Ghansyam%20Nagar,%20B/H%20Crystal%20Mall,%20Kalawad%20Road%20Rajkot%20Gujarat%20360001%20India","geoCode":{"lat":"22.279853","lng":"70.7631061"}},{"_id":"5e170e5cc5de2a5ee2e7539d","modeOfTransport":"Van","postCode":"360005","name":"Hetvi Bhaveshbhai Kanani","std":"5B","address":"Nandvihar Flat B-113, 1st Wing, Opp Dhananjay Marble, Sadhu Vaswani Road","__v":"0","splicedAddress":"Nandvihar Flat B-113, 1st Wing, Opp Dhananjay Marble, Sadhu Vaswani Road","newAddress":"Nandvihar%20Flat%20B-113,%201st%20Wing,%20Opp%20Dhananjay%20Marble,%20Sadhu%20Vaswani%20Road%20Rajkot%20Gujarat%20360005%20India","geoCode":{"lat":"22.29427","lng":"70.758776"}},{"_id":"5e170e5cc5de2a5ee2e7539e","modeOfTransport":"Van","postCode":"360008","name":"Hetvi Rashminbhai Khakhi","std":"5A","address":"3/5 College Wadi, Opp. B.B. House, Near Khadhiyawar Gymkhana","__v":"0","splicedAddress":"3/5 College Wadi, Opp. B.B. House, Near Khadhiyawar Gymkhana","newAddress":"3/5%20College%20Wadi,%20Opp.%20B.B.%20House,%20Near%20Khadhiyawar%20Gymkhana%20Rajkot%20Gujarat%20360008%20India","geoCode":{"lat":"22.2840707","lng":"70.77222859999999"}},{"_id":"5e170e5cc5de2a5ee2e7539f","modeOfTransport":"Van","postCode":"360005","name":"Khushi Pareshbhai Baraiya","std":"5B","address":"\"Suryakoti\" B-131, Kevalam Residency, Pushkar Dham Main Road","__v":"0","splicedAddress":"\"Suryakoti\" B-131, Kevalam Residency, Pushkar Dham Main Road","newAddress":"\"Suryakoti\"%20B-131,%20Kevalam%20Residency,%20Pushkar%20Dham%20Main%20Road%20Rajkot%20Gujarat%20360005%20India","geoCode":{"lat":"22.2808746","lng":"70.7561897"}},